timestamp,height,x_speed,y_speed,z_speed,pitch,roll,yaw,temperature,distance,barometer,flight_time,battery,mp_distance_x,mp_distance_y,mp_distance_z,frame.number,frame.len,frame.protocols,wlan.duration,wlan.ra,wlan.ta,wlan.da,wlan.sa,wlan.bssid,wlan.frag,wlan.seq,llc.type,ip.hdr_len,ip.len,ip.id,ip.flags,ip.ttl,ip.proto,ip.src,ip.dst,tcp.srcport,tcp.dstport,tcp.seq_raw,tcp.ack_raw,tcp.hdr_len,tcp.flags,tcp.window_size,tcp.options,udp.srcport,udp.dstport,udp.length,data.data,data.len,wlan.fc.type,wlan.fc.subtype,time_since_last_packet,class,mid,x,y,z,vgx,vgy,vgz,templ,temph,tof,h,bat,time,agx,agy,agz,wlan.flags,wlan.fcs,wlan.fcs.status,wlan.qos,wlan.qos.priority,wlan.qos.ack,wlan.ccmp.extiv,wlan.wep.key,radiotap.hdr_length,radiotap.antenna_signal,radiotap.signal_quality,radiotap.channel.flags.ofdm,radiotap.channel.flags.cck,wlan_radio.datarate,wlan_radio.channel,wlan_radio.frequency,wlan_radio.signal_strength (dbm),wlan_radio.Noise level (dbm),wlan_radio.SNR (db),wlan_radio.preamble
28122.961745,80.0,0.0,0.0,0.0,0,0,0,68.0,84.0,19309.0,7.0,65.0,-15.0,-5.0,86.0,261,98,0.0,320,3,1,3,1,0,0,215,0.0,0.0,0.0,0.0,0.0,0.0,0.0,0.0,0.0,0.0,0.0,0.0,0.0,0.0,0.0,0.0,0.0,0.0,0.0,0.0,0.0,0,0,5,0.002691,benign,,,,,,,,,,,,,,,,,,,,,,,,,,,,,,,,,,,,
28123.22718,80.0,0.0,0.0,0.0,0,0,0,68.0,84.0,19305.0,7.0,65.0,-13.0,-6.0,86.0,261,98,0.0,320,3,1,3,1,0,0,215,0.0,0.0,0.0,0.0,0.0,0.0,0.0,0.0,0.0,0.0,0.0,0.0,0.0,0.0,0.0,0.0,0.0,0.0,0.0,0.0,0.0,0,0,5,0.002691,benign,,,,,,,,,,,,,,,,,,,,,,,,,,,,,,,,,,,,
28123.48582,80.0,0.0,0.0,0.0,0,0,0,68.0,83.0,19303.0,8.0,65.0,-18.0,-6.0,85.0,261,98,0.0,320,3,1,3,1,0,0,215,0.0,0.0,0.0,0.0,0.0,0.0,0.0,0.0,0.0,0.0,0.0,0.0,0.0,0.0,0.0,0.0,0.0,0.0,0.0,0.0,0.0,0,0,5,0.002691,benign,,,,,,,,,,,,,,,,,,,,,,,,,,,,,,,,,,,,
28125.062615,80.0,0.0,0.0,0.0,-1,0,0,67.0,83.0,19307.0,8.0,65.0,-21.0,-9.0,84.0,279,227,3.0,44,0,1,0,1,0,0,117,2048.0,20.0,193.0,114.0,0.0,255.0,17.0,1.0,2.0,0.0,0.0,0.0,0.0,0.0,0.0,0.0,0.0,8889.0,8890.0,173.0,144.0,165,2,8,2.628489,benign,,,,,,,,,,,,,,,,,,,,,,,,,,,,,,,,,,,,
28125.326165,80.0,0.0,0.0,0.0,-1,0,0,67.0,85.0,19309.0,9.0,65.0,-24.0,-10.0,84.0,279,227,3.0,44,0,1,0,1,0,0,117,2048.0,20.0,193.0,114.0,0.0,255.0,17.0,1.0,2.0,0.0,0.0,0.0,0.0,0.0,0.0,0.0,0.0,8889.0,8890.0,173.0,144.0,165,2,8,2.628489,benign,,,,,,,,,,,,,,,,,,,,,,,,,,,,,,,,,,,,
28125.64435,80.0,0.0,0.0,0.0,-1,0,0,68.0,85.0,19306.0,9.0,65.0,-25.0,-10.0,85.0,292,26,0.0,60,1,0,1,0,0,0,0,0.0,0.0,0.0,0.0,0.0,0.0,0.0,0.0,0.0,0.0,0.0,0.0,0.0,0.0,0.0,0.0,0.0,0.0,0.0,0.0,0.0,0,2,12,0.008588,benign,,,,,,,,,,,,,,,,,,,,,,,,,,,,,,,,,,,,
28126.055895,80.0,0.0,0.0,0.0,-1,0,0,68.0,85.0,19305.0,10.0,65.0,-26.0,-15.0,84.0,306,26,0.0,60,1,0,1,0,0,0,0,0.0,0.0,0.0,0.0,0.0,0.0,0.0,0.0,0.0,0.0,0.0,0.0,0.0,0.0,0.0,0.0,0.0,0.0,0.0,0.0,0.0,0,2,12,0.009719,benign,,,,,,,,,,,,,,,,,,,,,,,,,,,,,,,,,,,,
28126.314145,80.0,1.0,0.0,0.0,-3,-1,0,68.0,84.0,19302.0,10.0,65.0,-25.0,-11.0,85.0,306,26,0.0,60,1,0,1,0,0,0,0,0.0,0.0,0.0,0.0,0.0,0.0,0.0,0.0,0.0,0.0,0.0,0.0,0.0,0.0,0.0,0.0,0.0,0.0,0.0,0.0,0.0,0,2,12,0.009719,benign,,,,,,,,,,,,,,,,,,,,,,,,,,,,,,,,,,,,
28126.579725,80.0,1.0,0.0,0.0,-1,0,0,68.0,82.0,19307.0,11.0,65.0,-21.0,-6.0,83.0,306,26,0.0,60,1,0,1,0,0,0,0,0.0,0.0,0.0,0.0,0.0,0.0,0.0,0.0,0.0,0.0,0.0,0.0,0.0,0.0,0.0,0.0,0.0,0.0,0.0,0.0,0.0,0,2,12,0.009719,benign,,,,,,,,,,,,,,,,,,,,,,,,,,,,,,,,,,,,
28128.40309,80.0,1.0,0.0,0.0,0,0,0,68.0,80.0,19309.0,11.0,65.0,-13.0,-4.0,82.0,321,229,3.0,44,0,1,0,1,0,0,158,2048.0,20.0,195.0,155.0,0.0,255.0,17.0,1.0,2.0,0.0,0.0,0.0,0.0,0.0,0.0,0.0,0.0,8889.0,8890.0,175.0,130.0,167,2,8,3.100869,benign,,,,,,,,,,,,,,,,,,,,,,,,,,,,,,,,,,,,
28128.6614,70.0,1.0,0.0,0.0,-1,0,0,68.0,79.0,19299.0,12.0,65.0,-12.0,-3.0,82.0,321,229,3.0,44,0,1,0,1,0,0,158,2048.0,20.0,195.0,155.0,0.0,255.0,17.0,1.0,2.0,0.0,0.0,0.0,0.0,0.0,0.0,0.0,0.0,8889.0,8890.0,175.0,130.0,167,2,8,3.100869,benign,,,,,,,,,,,,,,,,,,,,,,,,,,,,,,,,,,,,
28128.935505,70.0,0.0,0.0,0.0,-1,0,0,68.0,80.0,19306.0,12.0,65.0,-10.0,-4.0,81.0,321,229,3.0,44,0,1,0,1,0,0,158,2048.0,20.0,195.0,155.0,0.0,255.0,17.0,1.0,2.0,0.0,0.0,0.0,0.0,0.0,0.0,0.0,0.0,8889.0,8890.0,175.0,130.0,167,2,8,3.100869,benign,,,,,,,,,,,,,,,,,,,,,,,,,,,,,,,,,,,,
28129.353485,70.0,1.0,0.0,0.0,-1,-2,0,68.0,80.0,19305.0,13.0,65.0,-7.0,-4.0,82.0,335,230,3.0,44,0,1,0,1,0,0,161,2048.0,20.0,196.0,158.0,0.0,255.0,17.0,1.0,2.0,0.0,0.0,0.0,0.0,0.0,0.0,0.0,0.0,8889.0,8890.0,176.0,125.0,168,2,8,0.027848,benign,,,,,,,,,,,,,,,,,,,,,,,,,,,,,,,,,,,,
28129.71259,70.0,0.0,0.0,0.0,-1,0,0,68.0,80.0,19306.0,13.0,65.0,-7.0,-4.0,82.0,342,26,0.0,60,1,0,1,0,0,0,0,0.0,0.0,0.0,0.0,0.0,0.0,0.0,0.0,0.0,0.0,0.0,0.0,0.0,0.0,0.0,0.0,0.0,0.0,0.0,0.0,0.0,0,2,12,0.001234,benign,,,,,,,,,,,,,,,,,,,,,,,,,,,,,,,,,,,,
28129.97682,70.0,0.0,0.0,0.0,-1,0,0,68.0,80.0,19306.0,14.0,65.0,-7.0,-5.0,82.0,342,26,0.0,60,1,0,1,0,0,0,0,0.0,0.0,0.0,0.0,0.0,0.0,0.0,0.0,0.0,0.0,0.0,0.0,0.0,0.0,0.0,0.0,0.0,0.0,0.0,0.0,0.0,0,2,12,0.001234,benign,,,,,,,,,,,,,,,,,,,,,,,,,,,,,,,,,,,,
28131.6016,80.0,0.0,0.0,0.0,-1,-1,0,68.0,81.0,19306.0,14.0,65.0,-10.0,-9.0,83.0,352,230,3.0,320,0,1,0,1,0,0,196,2048.0,20.0,196.0,192.0,0.0,255.0,17.0,1.0,2.0,0.0,0.0,0.0,0.0,0.0,0.0,0.0,0.0,8889.0,8890.0,176.0,142.0,168,2,8,2.732904,benign,,,,,,,,,,,,,,,,,,,,,,,,,,,,,,,,,,,,
28131.866895,80.0,0.0,0.0,0.0,-1,0,0,68.0,81.0,19310.0,15.0,65.0,-19.0,-13.0,82.0,352,230,3.0,320,0,1,0,1,0,0,196,2048.0,20.0,196.0,192.0,0.0,255.0,17.0,1.0,2.0,0.0,0.0,0.0,0.0,0.0,0.0,0.0,0.0,8889.0,8890.0,176.0,142.0,168,2,8,2.732904,benign,,,,,,,,,,,,,,,,,,,,,,,,,,,,,,,,,,,,
28132.131200000003,80.0,0.0,0.0,0.0,-1,0,0,68.0,82.0,19311.0,15.0,65.0,-24.0,-18.0,81.0,352,230,3.0,320,0,1,0,1,0,0,196,2048.0,20.0,196.0,192.0,0.0,255.0,17.0,1.0,2.0,0.0,0.0,0.0,0.0,0.0,0.0,0.0,0.0,8889.0,8890.0,176.0,142.0,168,2,8,2.732904,benign,,,,,,,,,,,,,,,,,,,,,,,,,,,,,,,,,,,,
28132.55617,80.0,3.0,0.0,0.0,-8,0,0,68.0,83.0,19310.0,16.0,65.0,-22.0,-17.0,83.0,359,26,0.0,60,1,0,1,0,0,0,0,0.0,0.0,0.0,0.0,0.0,0.0,0.0,0.0,0.0,0.0,0.0,0.0,0.0,0.0,0.0,0.0,0.0,0.0,0.0,0.0,0.0,0,2,12,0.337729,benign,,,,,,,,,,,,,,,,,,,,,,,,,,,,,,,,,,,,
28133.025635,80.0,2.0,0.0,0.0,0,0,0,68.0,82.0,19311.0,16.0,65.0,-10.0,-16.0,85.0,379,75,3.0,44,0,1,0,1,0,0,205,2048.0,20.0,41.0,201.0,0.0,255.0,17.0,1.0,2.0,0.0,0.0,0.0,0.0,0.0,0.0,0.0,0.0,8889.0,8899.0,21.0,230.0,13,2,8,0.01296,benign,,,,,,,,,,,,,,,,,,,,,,,,,,,,,,,,,,,,
28133.574595,80.0,2.0,0.0,0.0,-1,0,0,69.0,83.0,19316.0,17.0,65.0,1.0,-19.0,87.0,383,230,3.0,320,0,1,0,1,0,0,211,2048.0,20.0,196.0,207.0,0.0,255.0,17.0,1.0,2.0,0.0,0.0,0.0,0.0,0.0,0.0,0.0,0.0,8889.0,8890.0,176.0,124.0,168,2,8,0.51432,benign,,,,,,,,,,,,,,,,,,,,,,,,,,,,,,,,,,,,
28133.831005,80.0,2.0,0.0,0.0,-1,0,0,69.0,83.0,19305.0,18.0,65.0,12.0,-22.0,89.0,384,230,3.0,320,0,1,0,1,0,0,211,2048.0,20.0,196.0,207.0,0.0,255.0,17.0,1.0,2.0,0.0,0.0,0.0,0.0,0.0,0.0,0.0,0.0,8889.0,8890.0,176.0,124.0,168,2,8,0.002425,benign,,,,,,,,,,,,,,,,,,,,,,,,,,,,,,,,,,,,
28134.087575,80.0,2.0,0.0,0.0,-1,0,0,68.0,84.0,19309.0,18.0,65.0,20.0,-27.0,88.0,384,230,3.0,320,0,1,0,1,0,0,211,2048.0,20.0,196.0,207.0,0.0,255.0,17.0,1.0,2.0,0.0,0.0,0.0,0.0,0.0,0.0,0.0,0.0,8889.0,8890.0,176.0,124.0,168,2,8,0.002425,benign,,,,,,,,,,,,,,,,,,,,,,,,,,,,,,,,,,,,
28135.647695,80.0,2.0,0.0,0.0,-1,0,0,68.0,84.0,19311.0,19.0,65.0,23.0,-23.0,92.0,401,26,0.0,60,1,0,1,0,0,0,0,0.0,0.0,0.0,0.0,0.0,0.0,0.0,0.0,0.0,0.0,0.0,0.0,0.0,0.0,0.0,0.0,0.0,0.0,0.0,0.0,0.0,0,2,12,2.593243,benign,,,,,,,,,,,,,,,,,,,,,,,,,,,,,,,,,,,,
28135.905925,80.0,2.0,0.0,0.0,-1,0,0,68.0,84.0,19311.0,19.0,65.0,30.0,-15.0,95.0,401,26,0.0,60,1,0,1,0,0,0,0,0.0,0.0,0.0,0.0,0.0,0.0,0.0,0.0,0.0,0.0,0.0,0.0,0.0,0.0,0.0,0.0,0.0,0.0,0.0,0.0,0.0,0,2,12,2.593243,benign,,,,,,,,,,,,,,,,,,,,,,,,,,,,,,,,,,,,
28136.177645,80.0,1.0,0.0,0.0,-1,1,0,68.0,83.0,19319.0,20.0,65.0,41.0,-11.0,92.0,401,26,0.0,60,1,0,1,0,0,0,0,0.0,0.0,0.0,0.0,0.0,0.0,0.0,0.0,0.0,0.0,0.0,0.0,0.0,0.0,0.0,0.0,0.0,0.0,0.0,0.0,0.0,0,2,12,2.593243,benign,,,,,,,,,,,,,,,,,,,,,,,,,,,,,,,,,,,,
28136.64615,80.0,0.0,0.0,0.0,0,-3,0,68.0,82.0,19313.0,20.0,65.0,47.0,14.0,82.0,425,229,3.0,44,0,1,0,1,0,0,246,2048.0,20.0,195.0,242.0,0.0,255.0,17.0,1.0,2.0,0.0,0.0,0.0,0.0,0.0,0.0,0.0,0.0,8889.0,8890.0,175.0,174.0,167,2,8,0.000294,benign,,,,,,,,,,,,,,,,,,,,,,,,,,,,,,,,,,,,
28136.89947,80.0,0.0,0.0,0.0,-4,0,0,68.0,83.0,19310.0,21.0,65.0,48.0,11.0,81.0,425,229,3.0,44,0,1,0,1,0,0,246,2048.0,20.0,195.0,242.0,0.0,255.0,17.0,1.0,2.0,0.0,0.0,0.0,0.0,0.0,0.0,0.0,0.0,8889.0,8890.0,175.0,174.0,167,2,8,0.000294,benign,,,,,,,,,,,,,,,,,,,,,,,,,,,,,,,,,,,,
28137.164735,80.0,0.0,0.0,0.0,2,0,0,67.0,82.0,19316.0,21.0,65.0,47.0,12.0,83.0,425,229,3.0,44,0,1,0,1,0,0,246,2048.0,20.0,195.0,242.0,0.0,255.0,17.0,1.0,2.0,0.0,0.0,0.0,0.0,0.0,0.0,0.0,0.0,8889.0,8890.0,175.0,174.0,167,2,8,0.000294,benign,,,,,,,,,,,,,,,,,,,,,,,,,,,,,,,,,,,,
28139.009375,80.0,0.0,0.0,0.0,-1,0,0,67.0,81.0,19319.0,22.0,65.0,48.0,15.0,80.0,463,233,3.0,44,0,1,0,1,0,0,282,2048.0,20.0,199.0,278.0,0.0,255.0,17.0,1.0,2.0,0.0,0.0,0.0,0.0,0.0,0.0,0.0,0.0,8889.0,8890.0,179.0,198.0,171,2,8,3.161677,benign,,,,,,,,,,,,,,,,,,,,,,,,,,,,,,,,,,,,
28139.269935,70.0,-2.0,-1.0,0.0,4,-4,0,68.0,80.0,19312.0,22.0,65.0,53.0,21.0,80.0,463,233,3.0,44,0,1,0,1,0,0,282,2048.0,20.0,199.0,278.0,0.0,255.0,17.0,1.0,2.0,0.0,0.0,0.0,0.0,0.0,0.0,0.0,0.0,8889.0,8890.0,179.0,198.0,171,2,8,3.161677,benign,,,,,,,,,,,,,,,,,,,,,,,,,,,,,,,,,,,,
28139.53847,70.0,-3.0,-3.0,0.0,-1,0,0,68.0,81.0,19315.0,23.0,65.0,19.0,-20.0,87.0,463,233,3.0,44,0,1,0,1,0,0,282,2048.0,20.0,199.0,278.0,0.0,255.0,17.0,1.0,2.0,0.0,0.0,0.0,0.0,0.0,0.0,0.0,0.0,8889.0,8890.0,179.0,198.0,171,2,8,3.161677,benign,,,,,,,,,,,,,,,,,,,,,,,,,,,,,,,,,,,,
28139.85232,70.0,-2.0,-2.0,0.0,-2,0,0,68.0,80.0,19317.0,23.0,65.0,2.0,-10.0,84.0,469,233,3.0,44,0,1,0,1,0,0,283,2048.0,20.0,199.0,279.0,0.0,255.0,17.0,1.0,2.0,0.0,0.0,0.0,0.0,0.0,0.0,0.0,0.0,8889.0,8890.0,179.0,197.0,171,2,8,0.034173,benign,,,,,,,,,,,,,,,,,,,,,,,,,,,,,,,,,,,,
28140.26757,70.0,0.0,-1.0,0.0,-1,0,0,68.0,80.0,19316.0,24.0,65.0,-8.0,-7.0,82.0,484,232,3.0,44,0,1,0,1,0,0,287,2048.0,20.0,198.0,283.0,0.0,255.0,17.0,1.0,2.0,0.0,0.0,0.0,0.0,0.0,0.0,0.0,0.0,8889.0,8890.0,178.0,163.0,170,2,8,0.088921,benign,,,,,,,,,,,,,,,,,,,,,,,,,,,,,,,,,,,,
28140.53147,70.0,0.0,0.0,0.0,-3,0,0,69.0,80.0,19321.0,24.0,65.0,-11.0,-5.0,81.0,484,232,3.0,44,0,1,0,1,0,0,287,2048.0,20.0,198.0,283.0,0.0,255.0,17.0,1.0,2.0,0.0,0.0,0.0,0.0,0.0,0.0,0.0,0.0,8889.0,8890.0,178.0,163.0,170,2,8,0.088921,benign,,,,,,,,,,,,,,,,,,,,,,,,,,,,,,,,,,,,
28140.794775,70.0,0.0,0.0,0.0,0,0,0,69.0,79.0,19313.0,25.0,65.0,-9.0,-2.0,81.0,484,232,3.0,44,0,1,0,1,0,0,287,2048.0,20.0,198.0,283.0,0.0,255.0,17.0,1.0,2.0,0.0,0.0,0.0,0.0,0.0,0.0,0.0,0.0,8889.0,8890.0,178.0,163.0,170,2,8,0.088921,benign,,,,,,,,,,,,,,,,,,,,,,,,,,,,,,,,,,,,
28142.652615,70.0,0.0,0.0,0.0,0,0,0,68.0,80.0,19314.0,25.0,65.0,-7.0,-4.0,82.0,500,26,0.0,60,1,0,1,0,0,0,0,0.0,0.0,0.0,0.0,0.0,0.0,0.0,0.0,0.0,0.0,0.0,0.0,0.0,0.0,0.0,0.0,0.0,0.0,0.0,0.0,0.0,0,2,12,3.188094,benign,,,,,,,,,,,,,,,,,,,,,,,,,,,,,,,,,,,,
28142.92333,80.0,0.0,0.0,0.0,0,0,0,68.0,81.0,19318.0,26.0,65.0,-8.0,-4.0,83.0,500,26,0.0,60,1,0,1,0,0,0,0,0.0,0.0,0.0,0.0,0.0,0.0,0.0,0.0,0.0,0.0,0.0,0.0,0.0,0.0,0.0,0.0,0.0,0.0,0.0,0.0,0.0,0,2,12,3.188094,benign,,,,,,,,,,,,,,,,,,,,,,,,,,,,,,,,,,,,
28143.18862,80.0,4.0,0.0,0.0,0,0,0,67.0,80.0,19307.0,27.0,65.0,5.0,-12.0,84.0,500,26,0.0,60,1,0,1,0,0,0,0,0.0,0.0,0.0,0.0,0.0,0.0,0.0,0.0,0.0,0.0,0.0,0.0,0.0,0.0,0.0,0.0,0.0,0.0,0.0,0.0,0.0,0,2,12,3.188094,benign,,,,,,,,,,,,,,,,,,,,,,,,,,,,,,,,,,,,
28143.546905,70.0,2.0,0.0,0.0,-1,-1,0,67.0,81.0,19319.0,27.0,65.0,22.0,-21.0,82.0,508,26,0.0,60,1,0,1,0,0,0,0,0.0,0.0,0.0,0.0,0.0,0.0,0.0,0.0,0.0,0.0,0.0,0.0,0.0,0.0,0.0,0.0,0.0,0.0,0.0,0.0,0.0,0,2,12,0.079457,benign,,,,,,,,,,,,,,,,,,,,,,,,,,,,,,,,,,,,
28144.079195,80.0,2.0,0.0,0.0,-1,-1,0,67.0,81.0,19321.0,28.0,65.0,34.0,-22.0,85.0,522,98,0.0,320,3,1,3,1,0,0,425,0.0,0.0,0.0,0.0,0.0,0.0,0.0,0.0,0.0,0.0,0.0,0.0,0.0,0.0,0.0,0.0,0.0,0.0,0.0,0.0,0.0,0,0,5,0.303911,benign,,,,,,,,,,,,,,,,,,,,,,,,,,,,,,,,,,,,
28144.390465,80.0,2.0,0.0,0.0,-1,-1,0,67.0,80.0,19317.0,28.0,65.0,47.0,-17.0,85.0,524,98,0.0,320,3,1,3,1,0,0,427,0.0,0.0,0.0,0.0,0.0,0.0,0.0,0.0,0.0,0.0,0.0,0.0,0.0,0.0,0.0,0.0,0.0,0.0,0.0,0.0,0.0,0,0,5,0.08854,benign,,,,,,,,,,,,,,,,,,,,,,,,,,,,,,,,,,,,
28144.653155,70.0,2.0,-1.0,0.0,-1,-1,0,68.0,80.0,19313.0,29.0,65.0,39.0,11.0,80.0,524,98,0.0,320,3,1,3,1,0,0,427,0.0,0.0,0.0,0.0,0.0,0.0,0.0,0.0,0.0,0.0,0.0,0.0,0.0,0.0,0.0,0.0,0.0,0.0,0.0,0.0,0.0,0,0,5,0.08854,benign,,,,,,,,,,,,,,,,,,,,,,,,,,,,,,,,,,,,
28146.02299,80.0,1.0,-1.0,0.0,2,-1,0,68.0,80.0,19318.0,29.0,65.0,34.0,8.0,78.0,537,230,3.0,320,0,1,0,1,0,0,361,2048.0,20.0,196.0,356.0,0.0,255.0,17.0,1.0,2.0,0.0,0.0,0.0,0.0,0.0,0.0,0.0,0.0,8889.0,8890.0,176.0,190.0,168,2,8,2.208082,benign,,,,,,,,,,,,,,,,,,,,,,,,,,,,,,,,,,,,
28146.288415,80.0,0.0,0.0,0.0,0,0,0,68.0,80.0,19325.0,30.0,65.0,29.0,4.0,79.0,537,230,3.0,320,0,1,0,1,0,0,361,2048.0,20.0,196.0,356.0,0.0,255.0,17.0,1.0,2.0,0.0,0.0,0.0,0.0,0.0,0.0,0.0,0.0,8889.0,8890.0,176.0,190.0,168,2,8,2.208082,benign,,,,,,,,,,,,,,,,,,,,,,,,,,,,,,,,,,,,
28146.8054,80.0,2.0,0.0,0.0,-1,0,0,67.0,81.0,19322.0,30.0,65.0,29.0,7.0,79.0,547,230,3.0,44,0,1,0,1,0,0,367,2048.0,20.0,196.0,362.0,0.0,255.0,17.0,1.0,2.0,0.0,0.0,0.0,0.0,0.0,0.0,0.0,0.0,8889.0,8890.0,176.0,186.0,168,2,8,0.503399,benign,,,,,,,,,,,,,,,,,,,,,,,,,,,,,,,,,,,,
28147.237915,80.0,1.0,0.0,0.0,0,0,0,67.0,81.0,19327.0,31.0,65.0,17.0,9.0,81.0,563,26,0.0,60,1,0,1,0,0,0,0,0.0,0.0,0.0,0.0,0.0,0.0,0.0,0.0,0.0,0.0,0.0,0.0,0.0,0.0,0.0,0.0,0.0,0.0,0.0,0.0,0.0,0,2,12,0.040777,benign,,,,,,,,,,,,,,,,,,,,,,,,,,,,,,,,,,,,
28147.553375,80.0,1.0,0.0,0.0,0,0,0,67.0,81.0,19327.0,31.0,65.0,4.0,7.0,83.0,567,26,0.0,60,1,0,1,0,0,0,0,0.0,0.0,0.0,0.0,0.0,0.0,0.0,0.0,0.0,0.0,0.0,0.0,0.0,0.0,0.0,0.0,0.0,0.0,0.0,0.0,0.0,0,2,12,0.041112,benign,,,,,,,,,,,,,,,,,,,,,,,,,,,,,,,,,,,,
28147.82715,80.0,0.0,0.0,0.0,0,-1,0,67.0,80.0,19317.0,32.0,65.0,0.0,8.0,82.0,567,26,0.0,60,1,0,1,0,0,0,0,0.0,0.0,0.0,0.0,0.0,0.0,0.0,0.0,0.0,0.0,0.0,0.0,0.0,0.0,0.0,0.0,0.0,0.0,0.0,0.0,0.0,0,2,12,0.041112,benign,,,,,,,,,,,,,,,,,,,,,,,,,,,,,,,,,,,,
28148.085515,70.0,0.0,0.0,0.0,0,0,0,68.0,79.0,19320.0,32.0,65.0,0.0,7.0,81.0,567,26,0.0,60,1,0,1,0,0,0,0,0.0,0.0,0.0,0.0,0.0,0.0,0.0,0.0,0.0,0.0,0.0,0.0,0.0,0.0,0.0,0.0,0.0,0.0,0.0,0.0,0.0,0,2,12,0.041112,benign,,,,,,,,,,,,,,,,,,,,,,,,,,,,,,,,,,,,
28149.91147,70.0,0.0,0.0,0.0,0,0,0,68.0,79.0,19321.0,33.0,65.0,1.0,6.0,81.0,597,86,2.0,44,1,0,1,0,0,0,192,2048.0,20.0,52.0,39388.0,64.0,128.0,6.0,2.0,4.0,54190.0,53.0,2220003350.0,0.0,32.0,2.0,64240.0,1.0,0.0,0.0,0.0,0.0,0,2,8,3.121858,benign,,,,,,,,,,,,,,,,,,,,,,,,,,,,,,,,,,,,
28150.176535,70.0,0.0,0.0,0.0,0,-1,0,68.0,79.0,19327.0,33.0,65.0,3.0,8.0,81.0,597,86,2.0,44,1,0,1,0,0,0,192,2048.0,20.0,52.0,39388.0,64.0,128.0,6.0,2.0,4.0,54190.0,53.0,2220003350.0,0.0,32.0,2.0,64240.0,1.0,0.0,0.0,0.0,0.0,0,2,8,3.121858,benign,,,,,,,,,,,,,,,,,,,,,,,,,,,,,,,,,,,,
28150.43955,70.0,0.0,0.0,0.0,-1,-1,0,68.0,79.0,19319.0,34.0,65.0,6.0,14.0,80.0,597,86,2.0,44,1,0,1,0,0,0,192,2048.0,20.0,52.0,39388.0,64.0,128.0,6.0,2.0,4.0,54190.0,53.0,2220003350.0,0.0,32.0,2.0,64240.0,1.0,0.0,0.0,0.0,0.0,0,2,8,3.121858,benign,,,,,,,,,,,,,,,,,,,,,,,,,,,,,,,,,,,,
28150.93488,70.0,4.0,0.0,0.0,0,0,0,67.0,78.0,19320.0,34.0,65.0,6.0,17.0,79.0,631,26,0.0,60,1,0,1,0,0,0,0,0.0,0.0,0.0,0.0,0.0,0.0,0.0,0.0,0.0,0.0,0.0,0.0,0.0,0.0,0.0,0.0,0.0,0.0,0.0,0.0,0.0,0,2,12,0.003963,benign,,,,,,,,,,,,,,,,,,,,,,,,,,,,,,,,,,,,
28151.197675000003,70.0,2.0,0.0,0.0,-1,-1,0,67.0,79.0,19321.0,35.0,65.0,-16.0,25.0,77.0,631,26,0.0,60,1,0,1,0,0,0,0,0.0,0.0,0.0,0.0,0.0,0.0,0.0,0.0,0.0,0.0,0.0,0.0,0.0,0.0,0.0,0.0,0.0,0.0,0.0,0.0,0.0,0,2,12,0.003963,benign,,,,,,,,,,,,,,,,,,,,,,,,,,,,,,,,,,,,
28151.457145,70.0,2.0,0.0,0.0,-1,0,0,68.0,79.0,19325.0,35.0,65.0,-23.0,27.0,79.0,631,26,0.0,60,1,0,1,0,0,0,0,0.0,0.0,0.0,0.0,0.0,0.0,0.0,0.0,0.0,0.0,0.0,0.0,0.0,0.0,0.0,0.0,0.0,0.0,0.0,0.0,0.0,0,2,12,0.003963,benign,,,,,,,,,,,,,,,,,,,,,,,,,,,,,,,,,,,,
28153.289285,70.0,2.0,0.0,0.0,-2,0,0,68.0,78.0,19318.0,36.0,65.0,-34.0,27.0,79.0,647,230,3.0,44,0,1,0,1,0,0,452,2048.0,20.0,196.0,444.0,0.0,255.0,17.0,1.0,2.0,0.0,0.0,0.0,0.0,0.0,0.0,0.0,0.0,8889.0,8890.0,176.0,205.0,168,2,8,3.106273,benign,,,,,,,,,,,,,,,,,,,,,,,,,,,,,,,,,,,,
28153.570785,70.0,2.0,0.0,0.0,-2,-1,0,68.0,78.0,19322.0,37.0,65.0,-45.0,40.0,69.0,647,230,3.0,44,0,1,0,1,0,0,452,2048.0,20.0,196.0,444.0,0.0,255.0,17.0,1.0,2.0,0.0,0.0,0.0,0.0,0.0,0.0,0.0,0.0,8889.0,8890.0,176.0,205.0,168,2,8,3.106273,benign,,,,,,,,,,,,,,,,,,,,,,,,,,,,,,,,,,,,
28153.828845,70.0,2.0,-1.0,0.0,-1,-1,0,68.0,78.0,19321.0,37.0,65.0,-25.0,-22.0,82.0,647,230,3.0,44,0,1,0,1,0,0,452,2048.0,20.0,196.0,444.0,0.0,255.0,17.0,1.0,2.0,0.0,0.0,0.0,0.0,0.0,0.0,0.0,0.0,8889.0,8890.0,176.0,205.0,168,2,8,3.106273,benign,,,,,,,,,,,,,,,,,,,,,,,,,,,,,,,,,,,,
28154.14922,70.0,0.0,0.0,0.0,1,0,0,68.0,79.0,19326.0,38.0,65.0,-21.0,-26.0,78.0,652,231,3.0,44,0,1,0,1,0,0,454,2048.0,20.0,197.0,446.0,0.0,255.0,17.0,1.0,2.0,0.0,0.0,0.0,0.0,0.0,0.0,0.0,0.0,8889.0,8890.0,177.0,204.0,169,2,8,0.034043,benign,,,,,,,,,,,,,,,,,,,,,,,,,,,,,,,,,,,,
28154.602405,80.0,0.0,0.0,0.0,-4,-5,0,68.0,80.0,19323.0,38.0,65.0,-17.0,-29.0,79.0,668,26,0.0,60,1,0,1,0,0,0,0,0.0,0.0,0.0,0.0,0.0,0.0,0.0,0.0,0.0,0.0,0.0,0.0,0.0,0.0,0.0,0.0,0.0,0.0,0.0,0.0,0.0,0,2,12,0.017904,benign,,,,,,,,,,,,,,,,,,,,,,,,,,,,,,,,,,,,
28154.85924,80.0,1.0,-2.0,0.0,-1,0,0,68.0,80.0,19327.0,39.0,65.0,-16.0,-24.0,79.0,668,26,0.0,60,1,0,1,0,0,0,0,0.0,0.0,0.0,0.0,0.0,0.0,0.0,0.0,0.0,0.0,0.0,0.0,0.0,0.0,0.0,0.0,0.0,0.0,0.0,0.0,0.0,0,2,12,0.017904,benign,,,,,,,,,,,,,,,,,,,,,,,,,,,,,,,,,,,,
28155.116835,70.0,1.0,-1.0,0.0,-1,0,0,68.0,79.0,19325.0,39.0,65.0,-10.0,-14.0,80.0,668,26,0.0,60,1,0,1,0,0,0,0,0.0,0.0,0.0,0.0,0.0,0.0,0.0,0.0,0.0,0.0,0.0,0.0,0.0,0.0,0.0,0.0,0.0,0.0,0.0,0.0,0.0,0,2,12,0.017904,benign,,,,,,,,,,,,,,,,,,,,,,,,,,,,,,,,,,,,
28156.91139,70.0,1.0,-1.0,0.0,-1,0,0,68.0,78.0,19326.0,40.0,65.0,-4.0,-6.0,80.0,726,26,0.0,60,1,0,1,0,0,0,0,0.0,0.0,0.0,0.0,0.0,0.0,0.0,0.0,0.0,0.0,0.0,0.0,0.0,0.0,0.0,0.0,0.0,0.0,0.0,0.0,0.0,0,2,12,3.07249,benign,,,,,,,,,,,,,,,,,,,,,,,,,,,,,,,,,,,,
28157.176445,70.0,0.0,0.0,0.0,0,1,0,68.0,77.0,19324.0,40.0,65.0,-3.0,-3.0,79.0,726,26,0.0,60,1,0,1,0,0,0,0,0.0,0.0,0.0,0.0,0.0,0.0,0.0,0.0,0.0,0.0,0.0,0.0,0.0,0.0,0.0,0.0,0.0,0.0,0.0,0.0,0.0,0,2,12,3.07249,benign,,,,,,,,,,,,,,,,,,,,,,,,,,,,,,,,,,,,
28157.44049,70.0,0.0,0.0,0.0,0,0,19,68.0,78.0,19325.0,41.0,65.0,-3.0,-4.0,79.0,726,26,0.0,60,1,0,1,0,0,0,0,0.0,0.0,0.0,0.0,0.0,0.0,0.0,0.0,0.0,0.0,0.0,0.0,0.0,0.0,0.0,0.0,0.0,0.0,0.0,0.0,0.0,0,2,12,3.07249,benign,,,,,,,,,,,,,,,,,,,,,,,,,,,,,,,,,,,,
28157.81665,70.0,0.0,0.0,0.0,0,-1,55,68.0,77.0,19324.0,41.0,65.0,-2.0,-8.0,78.0,736,229,3.0,44,0,1,0,1,0,0,498,2048.0,20.0,195.0,489.0,0.0,255.0,17.0,1.0,2.0,0.0,0.0,0.0,0.0,0.0,0.0,0.0,0.0,8889.0,8890.0,175.0,207.0,167,2,8,0.019126,benign,,,,,,,,,,,,,,,,,,,,,,,,,,,,,,,,,,,,
28158.184445,70.0,0.0,0.0,0.0,0,0,85,68.0,77.0,19323.0,42.0,65.0,-2.0,-10.0,78.0,742,232,3.0,44,0,1,0,1,0,0,500,2048.0,20.0,198.0,491.0,0.0,255.0,17.0,1.0,2.0,0.0,0.0,0.0,0.0,0.0,0.0,0.0,0.0,8889.0,8890.0,178.0,206.0,170,2,8,0.000328,benign,,,,,,,,,,,,,,,,,,,,,,,,,,,,,,,,,,,,
28158.449295,70.0,0.0,0.0,0.0,0,0,121,68.0,78.0,19323.0,42.0,65.0,-2.0,-14.0,78.0,742,232,3.0,44,0,1,0,1,0,0,500,2048.0,20.0,198.0,491.0,0.0,255.0,17.0,1.0,2.0,0.0,0.0,0.0,0.0,0.0,0.0,0.0,0.0,8889.0,8890.0,178.0,206.0,170,2,8,0.000328,benign,,,,,,,,,,,,,,,,,,,,,,,,,,,,,,,,,,,,
28158.71209,70.0,0.0,0.0,0.0,0,0,151,68.0,78.0,19322.0,43.0,65.0,0.0,-15.0,80.0,742,232,3.0,44,0,1,0,1,0,0,500,2048.0,20.0,198.0,491.0,0.0,255.0,17.0,1.0,2.0,0.0,0.0,0.0,0.0,0.0,0.0,0.0,0.0,8889.0,8890.0,178.0,206.0,170,2,8,0.000328,benign,,,,,,,,,,,,,,,,,,,,,,,,,,,,,,,,,,,,
28160.55308,70.0,0.0,0.0,0.0,0,0,172,68.0,77.0,19329.0,43.0,65.0,-2.0,-19.0,78.0,792,26,0.0,60,1,0,1,0,0,0,0,0.0,0.0,0.0,0.0,0.0,0.0,0.0,0.0,0.0,0.0,0.0,0.0,0.0,0.0,0.0,0.0,0.0,0.0,0.0,0.0,0.0,0,2,12,3.15571,benign,,,,,,,,,,,,,,,,,,,,,,,,,,,,,,,,,,,,
28160.81716,70.0,0.0,0.0,0.0,0,0,178,68.0,76.0,19325.0,44.0,65.0,-4.0,-17.0,77.0,792,26,0.0,60,1,0,1,0,0,0,0,0.0,0.0,0.0,0.0,0.0,0.0,0.0,0.0,0.0,0.0,0.0,0.0,0.0,0.0,0.0,0.0,0.0,0.0,0.0,0.0,0.0,0,2,12,3.15571,benign,,,,,,,,,,,,,,,,,,,,,,,,,,,,,,,,,,,,
28161.08719,70.0,0.0,0.0,0.0,0,0,178,68.0,76.0,19323.0,45.0,65.0,-4.0,-13.0,77.0,792,26,0.0,60,1,0,1,0,0,0,0,0.0,0.0,0.0,0.0,0.0,0.0,0.0,0.0,0.0,0.0,0.0,0.0,0.0,0.0,0.0,0.0,0.0,0.0,0.0,0.0,0.0,0,2,12,3.15571,benign,,,,,,,,,,,,,,,,,,,,,,,,,,,,,,,,,,,,
28161.529395,70.0,0.0,0.0,0.0,0,0,178,68.0,77.0,19333.0,45.0,65.0,-3.0,-12.0,78.0,802,233,3.0,44,0,1,0,1,0,0,542,2048.0,20.0,199.0,533.0,0.0,255.0,17.0,1.0,2.0,0.0,0.0,0.0,0.0,0.0,0.0,0.0,0.0,8889.0,8890.0,179.0,213.0,171,2,8,0.056927,benign,,,,,,,,,,,,,,,,,,,,,,,,,,,,,,,,,,,,
28161.845275,70.0,-4.0,0.0,0.0,-4,0,178,68.0,78.0,19320.0,46.0,65.0,-9.0,-13.0,78.0,809,231,3.0,44,0,1,0,1,0,0,543,2048.0,20.0,197.0,534.0,0.0,255.0,17.0,1.0,2.0,0.0,0.0,0.0,0.0,0.0,0.0,0.0,0.0,8889.0,8890.0,177.0,211.0,169,2,8,0.002516,benign,,,,,,,,,,,,,,,,,,,,,,,,,,,,,,,,,,,,
28162.111790000003,70.0,-2.0,0.0,0.0,0,0,178,68.0,78.0,19330.0,46.0,65.0,-31.0,-9.0,79.0,809,231,3.0,44,0,1,0,1,0,0,543,2048.0,20.0,197.0,534.0,0.0,255.0,17.0,1.0,2.0,0.0,0.0,0.0,0.0,0.0,0.0,0.0,0.0,8889.0,8890.0,177.0,211.0,169,2,8,0.002516,benign,,,,,,,,,,,,,,,,,,,,,,,,,,,,,,,,,,,,
28162.37708,70.0,-2.0,0.0,0.0,0,0,178,68.0,78.0,19327.0,47.0,65.0,-39.0,-8.0,82.0,809,231,3.0,44,0,1,0,1,0,0,543,2048.0,20.0,197.0,534.0,0.0,255.0,17.0,1.0,2.0,0.0,0.0,0.0,0.0,0.0,0.0,0.0,0.0,8889.0,8890.0,177.0,211.0,169,2,8,0.002516,benign,,,,,,,,,,,,,,,,,,,,,,,,,,,,,,,,,,,,
28164.19508,70.0,-2.0,0.0,0.0,-1,0,178,68.0,78.0,19321.0,47.0,65.0,-30.0,26.0,75.0,835,231,3.0,44,0,1,0,1,0,0,579,2048.0,20.0,197.0,570.0,0.0,255.0,17.0,1.0,2.0,0.0,0.0,0.0,0.0,0.0,0.0,0.0,0.0,8889.0,8890.0,177.0,179.0,169,2,8,3.110638,benign,,,,,,,,,,,,,,,,,,,,,,,,,,,,,,,,,,,,
28164.455515,70.0,-2.0,0.0,0.0,0,0,178,68.0,78.0,19332.0,48.0,65.0,-14.0,22.0,77.0,835,231,3.0,44,0,1,0,1,0,0,579,2048.0,20.0,197.0,570.0,0.0,255.0,17.0,1.0,2.0,0.0,0.0,0.0,0.0,0.0,0.0,0.0,0.0,8889.0,8890.0,177.0,179.0,169,2,8,3.110638,benign,,,,,,,,,,,,,,,,,,,,,,,,,,,,,,,,,,,,
28164.71908,70.0,0.0,0.0,0.0,0,0,178,68.0,78.0,19327.0,48.0,65.0,-3.0,12.0,80.0,835,231,3.0,44,0,1,0,1,0,0,579,2048.0,20.0,197.0,570.0,0.0,255.0,17.0,1.0,2.0,0.0,0.0,0.0,0.0,0.0,0.0,0.0,0.0,8889.0,8890.0,177.0,179.0,169,2,8,3.110638,benign,,,,,,,,,,,,,,,,,,,,,,,,,,,,,,,,,,,,
28165.21546,70.0,0.0,-1.0,0.0,0,0,178,68.0,79.0,19330.0,49.0,65.0,4.0,9.0,80.0,857,77,3.0,44,1,0,1,0,0,0,246,2048.0,20.0,43.0,29084.0,0.0,128.0,17.0,2.0,1.0,0.0,0.0,0.0,0.0,0.0,0.0,0.0,0.0,8889.0,8889.0,23.0,2.0,15,2,8,0.066688,benign,,,,,,,,,,,,,,,,,,,,,,,,,,,,,,,,,,,,
28165.49473,80.0,0.0,0.0,0.0,0,-1,178,68.0,80.0,19323.0,49.0,65.0,3.0,5.0,81.0,857,77,3.0,44,1,0,1,0,0,0,246,2048.0,20.0,43.0,29084.0,0.0,128.0,17.0,2.0,1.0,0.0,0.0,0.0,0.0,0.0,0.0,0.0,0.0,8889.0,8889.0,23.0,2.0,15,2,8,0.066688,benign,,,,,,,,,,,,,,,,,,,,,,,,,,,,,,,,,,,,
28165.76002,80.0,0.0,0.0,0.0,0,0,178,68.0,80.0,19322.0,50.0,65.0,3.0,3.0,82.0,857,77,3.0,44,1,0,1,0,0,0,246,2048.0,20.0,43.0,29084.0,0.0,128.0,17.0,2.0,1.0,0.0,0.0,0.0,0.0,0.0,0.0,0.0,0.0,8889.0,8889.0,23.0,2.0,15,2,8,0.066688,benign,,,,,,,,,,,,,,,,,,,,,,,,,,,,,,,,,,,,
28167.55478,80.0,0.0,0.0,0.0,0,0,178,68.0,80.0,19328.0,50.0,65.0,3.0,3.0,82.0,881,98,0.0,320,2,1,2,1,0,0,666,0.0,0.0,0.0,0.0,0.0,0.0,0.0,0.0,0.0,0.0,0.0,0.0,0.0,0.0,0.0,0.0,0.0,0.0,0.0,0.0,0.0,0,0,5,3.068086,benign,,,,,,,,,,,,,,,,,,,,,,,,,,,,,,,,,,,,
28167.817905,80.0,-4.0,0.0,0.0,1,0,178,67.0,81.0,19326.0,51.0,65.0,14.0,0.0,82.0,881,98,0.0,320,2,1,2,1,0,0,666,0.0,0.0,0.0,0.0,0.0,0.0,0.0,0.0,0.0,0.0,0.0,0.0,0.0,0.0,0.0,0.0,0.0,0.0,0.0,0.0,0.0,0,0,5,3.068086,benign,,,,,,,,,,,,,,,,,,,,,,,,,,,,,,,,,,,,
28168.084195,80.0,-2.0,0.0,0.0,-1,0,178,68.0,81.0,19327.0,51.0,65.0,35.0,-1.0,79.0,881,98,0.0,320,2,1,2,1,0,0,666,0.0,0.0,0.0,0.0,0.0,0.0,0.0,0.0,0.0,0.0,0.0,0.0,0.0,0.0,0.0,0.0,0.0,0.0,0.0,0.0,0.0,0,0,5,3.068086,benign,,,,,,,,,,,,,,,,,,,,,,,,,,,,,,,,,,,,
28168.40551,80.0,-2.0,0.0,0.0,-1,0,178,68.0,80.0,19322.0,52.0,65.0,47.0,-6.0,77.0,886,232,3.0,44,0,1,0,1,0,0,624,2048.0,20.0,198.0,614.0,0.0,255.0,17.0,1.0,2.0,0.0,0.0,0.0,0.0,0.0,0.0,0.0,0.0,8889.0,8890.0,178.0,184.0,170,2,8,0.102152,benign,,,,,,,,,,,,,,,,,,,,,,,,,,,,,,,,,,,,
28168.867055,80.0,-2.0,0.0,0.0,0,0,178,68.0,80.0,19322.0,52.0,65.0,34.0,0.0,85.0,910,232,3.0,320,0,1,0,1,0,0,628,2048.0,20.0,198.0,618.0,0.0,255.0,17.0,1.0,2.0,0.0,0.0,0.0,0.0,0.0,0.0,0.0,0.0,8889.0,8890.0,178.0,194.0,170,2,8,0.002627,benign,,,,,,,,,,,,,,,,,,,,,,,,,,,,,,,,,,,,
28169.128900000003,80.0,-1.0,0.0,0.0,0,-3,178,68.0,80.0,19324.0,53.0,65.0,24.0,-5.0,82.0,910,232,3.0,320,0,1,0,1,0,0,628,2048.0,20.0,198.0,618.0,0.0,255.0,17.0,1.0,2.0,0.0,0.0,0.0,0.0,0.0,0.0,0.0,0.0,8889.0,8890.0,178.0,194.0,170,2,8,0.002627,benign,,,,,,,,,,,,,,,,,,,,,,,,,,,,,,,,,,,,
28169.38663,80.0,0.0,0.0,0.0,0,0,178,68.0,80.0,19324.0,54.0,65.0,12.0,-6.0,83.0,910,232,3.0,320,0,1,0,1,0,0,628,2048.0,20.0,198.0,618.0,0.0,255.0,17.0,1.0,2.0,0.0,0.0,0.0,0.0,0.0,0.0,0.0,0.0,8889.0,8890.0,178.0,194.0,170,2,8,0.002627,benign,,,,,,,,,,,,,,,,,,,,,,,,,,,,,,,,,,,,
28171.22135,80.0,-1.0,0.0,0.0,-1,0,178,68.0,80.0,19327.0,54.0,65.0,14.0,-8.0,82.0,929,26,0.0,60,1,0,1,0,0,0,0,0.0,0.0,0.0,0.0,0.0,0.0,0.0,0.0,0.0,0.0,0.0,0.0,0.0,0.0,0.0,0.0,0.0,0.0,0.0,0.0,0.0,0,2,12,3.142848,benign,,,,,,,,,,,,,,,,,,,,,,,,,,,,,,,,,,,,
28171.48586,80.0,0.0,0.0,0.0,0,0,178,67.0,79.0,19327.0,55.0,65.0,1.0,0.0,83.0,929,26,0.0,60,1,0,1,0,0,0,0,0.0,0.0,0.0,0.0,0.0,0.0,0.0,0.0,0.0,0.0,0.0,0.0,0.0,0.0,0.0,0.0,0.0,0.0,0.0,0.0,0.0,0,2,12,3.142848,benign,,,,,,,,,,,,,,,,,,,,,,,,,,,,,,,,,,,,
28171.764865,70.0,0.0,0.0,0.0,0,0,178,67.0,78.0,19324.0,55.0,64.0,0.0,0.0,82.0,929,26,0.0,60,1,0,1,0,0,0,0,0.0,0.0,0.0,0.0,0.0,0.0,0.0,0.0,0.0,0.0,0.0,0.0,0.0,0.0,0.0,0.0,0.0,0.0,0.0,0.0,0.0,0,2,12,3.142848,benign,,,,,,,,,,,,,,,,,,,,,,,,,,,,,,,,,,,,
28172.123385,70.0,0.0,0.0,0.0,0,0,178,68.0,78.0,19324.0,56.0,64.0,1.0,0.0,82.0,939,26,0.0,60,1,0,1,0,0,0,0,0.0,0.0,0.0,0.0,0.0,0.0,0.0,0.0,0.0,0.0,0.0,0.0,0.0,0.0,0.0,0.0,0.0,0.0,0.0,0.0,0.0,0,2,12,0.056085,benign,,,,,,,,,,,,,,,,,,,,,,,,,,,,,,,,,,,,
28172.497795000003,70.0,-4.0,0.0,0.0,-3,0,178,68.0,79.0,19322.0,56.0,64.0,6.0,-1.0,81.0,954,231,3.0,44,0,1,0,1,0,0,671,2048.0,20.0,197.0,661.0,0.0,255.0,17.0,1.0,2.0,0.0,0.0,0.0,0.0,0.0,0.0,0.0,0.0,8889.0,8890.0,177.0,160.0,169,2,8,0.012963,benign,,,,,,,,,,,,,,,,,,,,,,,,,,,,,,,,,,,,
28172.772015,80.0,-2.0,0.0,0.0,0,0,178,68.0,80.0,19323.0,57.0,64.0,-11.0,-3.0,81.0,954,231,3.0,44,0,1,0,1,0,0,671,2048.0,20.0,197.0,661.0,0.0,255.0,17.0,1.0,2.0,0.0,0.0,0.0,0.0,0.0,0.0,0.0,0.0,8889.0,8890.0,177.0,160.0,169,2,8,0.012963,benign,,,,,,,,,,,,,,,,,,,,,,,,,,,,,,,,,,,,
28173.036575,80.0,-2.0,0.0,0.0,-1,0,178,68.0,80.0,19327.0,57.0,64.0,-22.0,-2.0,81.0,954,231,3.0,44,0,1,0,1,0,0,671,2048.0,20.0,197.0,661.0,0.0,255.0,17.0,1.0,2.0,0.0,0.0,0.0,0.0,0.0,0.0,0.0,0.0,8889.0,8890.0,177.0,160.0,169,2,8,0.012963,benign,,,,,,,,,,,,,,,,,,,,,,,,,,,,,,,,,,,,
28174.880455,70.0,-2.0,0.0,0.0,-1,0,178,68.0,78.0,19324.0,58.0,64.0,-39.0,-2.0,76.0,975,26,0.0,60,1,0,1,0,0,0,0,0.0,0.0,0.0,0.0,0.0,0.0,0.0,0.0,0.0,0.0,0.0,0.0,0.0,0.0,0.0,0.0,0.0,0.0,0.0,0.0,0.0,0,2,12,3.161174,benign,,,,,,,,,,,,,,,,,,,,,,,,,,,,,,,,,,,,
28175.14475,70.0,-2.0,0.0,0.0,0,0,178,68.0,77.0,19325.0,58.0,64.0,-47.0,4.0,78.0,975,26,0.0,60,1,0,1,0,0,0,0,0.0,0.0,0.0,0.0,0.0,0.0,0.0,0.0,0.0,0.0,0.0,0.0,0.0,0.0,0.0,0.0,0.0,0.0,0.0,0.0,0.0,0,2,12,3.161174,benign,,,,,,,,,,,,,,,,,,,,,,,,,,,,,,,,,,,,
28175.40084,70.0,-1.0,0.0,0.0,0,0,178,68.0,77.0,19327.0,59.0,64.0,-54.0,-4.0,74.0,975,26,0.0,60,1,0,1,0,0,0,0,0.0,0.0,0.0,0.0,0.0,0.0,0.0,0.0,0.0,0.0,0.0,0.0,0.0,0.0,0.0,0.0,0.0,0.0,0.0,0.0,0.0,0,2,12,3.161174,benign,,,,,,,,,,,,,,,,,,,,,,,,,,,,,,,,,,,,
28175.83678,70.0,0.0,1.0,0.0,0,2,178,68.0,78.0,19321.0,59.0,64.0,-54.0,-4.0,74.0,987,234,3.0,44,0,1,0,1,0,0,710,2048.0,20.0,200.0,700.0,0.0,255.0,17.0,1.0,2.0,0.0,0.0,0.0,0.0,0.0,0.0,0.0,0.0,8889.0,8890.0,180.0,150.0,172,2,8,0.102,benign,,,,,,,,,,,,,,,,,,,,,,,,,,,,,,,,,,,,
28176.12081,70.0,0.0,0.0,0.0,6,0,178,68.0,78.0,19324.0,60.0,64.0,-54.0,-4.0,74.0,989,26,0.0,60,1,0,1,0,0,0,0,0.0,0.0,0.0,0.0,0.0,0.0,0.0,0.0,0.0,0.0,0.0,0.0,0.0,0.0,0.0,0.0,0.0,0.0,0.0,0.0,0.0,0,2,12,0.051658,benign,,,,,,,,,,,,,,,,,,,,,,,,,,,,,,,,,,,,
28176.380115,80.0,4.0,0.0,0.0,0,-1,178,68.0,80.0,19330.0,60.0,64.0,-54.0,-4.0,74.0,989,26,0.0,60,1,0,1,0,0,0,0,0.0,0.0,0.0,0.0,0.0,0.0,0.0,0.0,0.0,0.0,0.0,0.0,0.0,0.0,0.0,0.0,0.0,0.0,0.0,0.0,0.0,0,2,12,0.051658,benign,,,,,,,,,,,,,,,,,,,,,,,,,,,,,,,,,,,,
28176.63918,80.0,3.0,0.0,0.0,-1,0,178,68.0,79.0,19328.0,61.0,63.0,-27.0,2.0,79.0,989,26,0.0,60,1,0,1,0,0,0,0,0.0,0.0,0.0,0.0,0.0,0.0,0.0,0.0,0.0,0.0,0.0,0.0,0.0,0.0,0.0,0.0,0.0,0.0,0.0,0.0,0.0,0,2,12,0.051658,benign,,,,,,,,,,,,,,,,,,,,,,,,,,,,,,,,,,,,
28178.48337,80.0,1.0,0.0,0.0,-1,0,178,68.0,79.0,19325.0,61.0,63.0,-9.0,1.0,80.0,1004,231,3.0,44,0,1,0,1,0,0,750,2048.0,20.0,197.0,739.0,0.0,255.0,17.0,1.0,2.0,0.0,0.0,0.0,0.0,0.0,0.0,0.0,0.0,8889.0,8890.0,177.0,135.0,169,2,8,3.160876,benign,,,,,,,,,,,,,,,,,,,,,,,,,,,,,,,,,,,,
28178.74723,80.0,0.0,0.0,0.0,-2,0,178,68.0,79.0,19322.0,62.0,63.0,-4.0,3.0,81.0,1004,231,3.0,44,0,1,0,1,0,0,750,2048.0,20.0,197.0,739.0,0.0,255.0,17.0,1.0,2.0,0.0,0.0,0.0,0.0,0.0,0.0,0.0,0.0,8889.0,8890.0,177.0,135.0,169,2,8,3.160876,benign,,,,,,,,,,,,,,,,,,,,,,,,,,,,,,,,,,,,
28179.01804,80.0,0.0,0.0,0.0,0,0,-146,68.0,80.0,19321.0,62.0,63.0,0.0,3.0,82.0,1004,231,3.0,44,0,1,0,1,0,0,750,2048.0,20.0,197.0,739.0,0.0,255.0,17.0,1.0,2.0,0.0,0.0,0.0,0.0,0.0,0.0,0.0,0.0,8889.0,8890.0,177.0,135.0,169,2,8,3.160876,benign,,,,,,,,,,,,,,,,,,,,,,,,,,,,,,,,,,,,
28179.49808,80.0,0.0,0.0,0.0,0,0,-115,68.0,80.0,19333.0,63.0,63.0,0.0,3.0,82.0,1041,26,0.0,60,1,0,1,0,0,0,0,0.0,0.0,0.0,0.0,0.0,0.0,0.0,0.0,0.0,0.0,0.0,0.0,0.0,0.0,0.0,0.0,0.0,0.0,0.0,0.0,0.0,0,2,12,0.027044,benign,,,,,,,,,,,,,,,,,,,,,,,,,,,,,,,,,,,,
28179.767435,80.0,0.0,0.0,0.0,0,0,-84,68.0,82.0,19325.0,63.0,63.0,-4.0,5.0,83.0,1045,86,2.0,44,1,0,1,0,0,0,290,2048.0,20.0,52.0,39434.0,64.0,128.0,6.0,2.0,4.0,49267.0,53.0,2950994628.0,0.0,32.0,2.0,64240.0,1.0,0.0,0.0,0.0,0.0,0,2,8,0.009929,benign,,,,,,,,,,,,,,,,,,,,,,,,,,,,,,,,,,,,
28180.032495,80.0,0.0,0.0,0.0,0,0,-46,68.0,83.0,19326.0,64.0,63.0,-4.0,8.0,84.0,1045,86,2.0,44,1,0,1,0,0,0,290,2048.0,20.0,52.0,39434.0,64.0,128.0,6.0,2.0,4.0,49267.0,53.0,2950994628.0,0.0,32.0,2.0,64240.0,1.0,0.0,0.0,0.0,0.0,0,2,8,0.009929,benign,,,,,,,,,,,,,,,,,,,,,,,,,,,,,,,,,,,,
28181.83599,80.0,0.0,0.0,0.0,0,0,-17,68.0,82.0,19324.0,65.0,63.0,-3.0,8.0,85.0,1056,232,3.0,44,0,1,0,1,0,0,792,2048.0,20.0,198.0,781.0,0.0,255.0,17.0,1.0,2.0,0.0,0.0,0.0,0.0,0.0,0.0,0.0,0.0,8889.0,8890.0,178.0,148.0,170,2,8,3.081982,benign,,,,,,,,,,,,,,,,,,,,,,,,,,,,,,,,,,,,
28182.099785,80.0,0.0,0.0,0.0,0,0,-5,68.0,81.0,19333.0,65.0,63.0,-2.0,9.0,84.0,1056,232,3.0,44,0,1,0,1,0,0,792,2048.0,20.0,198.0,781.0,0.0,255.0,17.0,1.0,2.0,0.0,0.0,0.0,0.0,0.0,0.0,0.0,0.0,8889.0,8890.0,178.0,148.0,170,2,8,3.081982,benign,,,,,,,,,,,,,,,,,,,,,,,,,,,,,,,,,,,,
28182.3571,80.0,0.0,0.0,0.0,0,0,-3,68.0,80.0,19324.0,66.0,63.0,-200.0,-200.0,-200.0,1056,232,3.0,44,0,1,0,1,0,0,792,2048.0,20.0,198.0,781.0,0.0,255.0,17.0,1.0,2.0,0.0,0.0,0.0,0.0,0.0,0.0,0.0,0.0,8889.0,8890.0,178.0,148.0,170,2,8,3.081982,benign,,,,,,,,,,,,,,,,,,,,,,,,,,,,,,,,,,,,
28182.651865,80.0,0.0,0.0,0.0,0,0,-3,68.0,80.0,19331.0,66.0,62.0,-200.0,-200.0,-200.0,1059,66,3.0,44,1,0,1,0,0,0,296,2048.0,20.0,32.0,29090.0,0.0,128.0,17.0,2.0,1.0,0.0,0.0,0.0,0.0,0.0,0.0,0.0,0.0,8889.0,8889.0,12.0,216.0,4,2,8,0.00065,benign,,,,,,,,,,,,,,,,,,,,,,,,,,,,,,,,,,,,
28183.12429,70.0,0.0,0.0,2.0,0,0,-3,67.0,76.0,19319.0,67.0,62.0,-200.0,-200.0,-200.0,1087,86,2.0,44,1,0,1,0,0,0,300,2048.0,20.0,52.0,16855.0,64.0,128.0,6.0,2.0,3.0,64376.0,53.0,974849101.0,0.0,32.0,2.0,64240.0,1.0,0.0,0.0,0.0,0.0,0,2,8,0.007998,benign,,,,,,,,,,,,,,,,,,,,,,,,,,,,,,,,,,,,
28183.381365,50.0,0.0,0.0,4.0,0,0,-3,67.0,56.0,19305.0,67.0,62.0,-200.0,-200.0,-200.0,1087,86,2.0,44,1,0,1,0,0,0,300,2048.0,20.0,52.0,16855.0,64.0,128.0,6.0,2.0,3.0,64376.0,53.0,974849101.0,0.0,32.0,2.0,64240.0,1.0,0.0,0.0,0.0,0.0,0,2,8,0.007998,benign,,,,,,,,,,,,,,,,,,,,,,,,,,,,,,,,,,,,
28183.635445,20.0,0.0,0.0,4.0,0,0,-3,68.0,26.0,19266.0,68.0,62.0,-200.0,-200.0,-200.0,1087,86,2.0,44,1,0,1,0,0,0,300,2048.0,20.0,52.0,16855.0,64.0,128.0,6.0,2.0,3.0,64376.0,53.0,974849101.0,0.0,32.0,2.0,64240.0,1.0,0.0,0.0,0.0,0.0,0,2,8,0.007998,benign,,,,,,,,,,,,,,,,,,,,,,,,,,,,,,,,,,,,
28185.426715,0.0,0.0,0.0,3.0,0,0,-3,68.0,10.0,19011.0,68.0,62.0,-200.0,-200.0,-200.0,1103,75,3.0,44,0,1,0,1,0,0,833,2048.0,20.0,41.0,822.0,0.0,255.0,17.0,1.0,2.0,0.0,0.0,0.0,0.0,0.0,0.0,0.0,0.0,8889.0,8899.0,21.0,236.0,13,2,8,3.073391,benign,,,,,,,,,,,,,,,,,,,,,,,,,,,,,,,,,,,,
28185.68094,0.0,-1.0,0.0,0.0,-1,0,-4,68.0,10.0,19081.0,69.0,62.0,-200.0,-200.0,-200.0,1103,75,3.0,44,0,1,0,1,0,0,833,2048.0,20.0,41.0,822.0,0.0,255.0,17.0,1.0,2.0,0.0,0.0,0.0,0.0,0.0,0.0,0.0,0.0,8889.0,8899.0,21.0,236.0,13,2,8,3.073391,benign,,,,,,,,,,,,,,,,,,,,,,,,,,,,,,,,,,,,
28185.95421,0.0,-1.0,0.0,0.0,-1,0,-4,68.0,10.0,19176.0,69.0,62.0,-200.0,-200.0,-200.0,1103,75,3.0,44,0,1,0,1,0,0,833,2048.0,20.0,41.0,822.0,0.0,255.0,17.0,1.0,2.0,0.0,0.0,0.0,0.0,0.0,0.0,0.0,0.0,8889.0,8899.0,21.0,236.0,13,2,8,3.073391,benign,,,,,,,,,,,,,,,,,,,,,,,,,,,,,,,,,,,,
28315.24928,70.0,0.0,0.0,0.0,0,0,0,72.0,84.0,19341.0,11.0,52.0,-6.0,-4.0,86.0,259,228,3.0,44,0,1,0,1,0,0,154,2048.0,20.0,194.0,152.0,0.0,255.0,17.0,1.0,2.0,0.0,0.0,0.0,0.0,0.0,0.0,0.0,0.0,8889.0,8890.0,174.0,32.0,166,2,8,3.048202,benign,,,,,,,,,,,,,,,,,,,,,,,,,,,,,,,,,,,,
28315.51356,70.0,0.0,0.0,0.0,0,0,0,72.0,84.0,19341.0,12.0,52.0,-7.0,-5.0,86.0,259,228,3.0,44,0,1,0,1,0,0,154,2048.0,20.0,194.0,152.0,0.0,255.0,17.0,1.0,2.0,0.0,0.0,0.0,0.0,0.0,0.0,0.0,0.0,8889.0,8890.0,174.0,32.0,166,2,8,3.048202,benign,,,,,,,,,,,,,,,,,,,,,,,,,,,,,,,,,,,,
28315.778605,70.0,0.0,0.0,0.0,0,0,0,72.0,84.0,19346.0,12.0,52.0,-6.0,-6.0,86.0,259,228,3.0,44,0,1,0,1,0,0,154,2048.0,20.0,194.0,152.0,0.0,255.0,17.0,1.0,2.0,0.0,0.0,0.0,0.0,0.0,0.0,0.0,0.0,8889.0,8890.0,174.0,32.0,166,2,8,3.048202,benign,,,,,,,,,,,,,,,,,,,,,,,,,,,,,,,,,,,,
28316.11345,70.0,0.0,0.0,0.0,0,0,0,72.0,84.0,19347.0,13.0,52.0,-6.0,-8.0,86.0,271,227,3.0,44,0,1,0,1,0,0,156,2048.0,20.0,193.0,154.0,0.0,255.0,17.0,1.0,2.0,0.0,0.0,0.0,0.0,0.0,0.0,0.0,0.0,8889.0,8890.0,173.0,24.0,165,2,8,0.043759,benign,,,,,,,,,,,,,,,,,,,,,,,,,,,,,,,,,,,,
28316.37899,70.0,0.0,0.0,0.0,0,0,0,72.0,84.0,19346.0,13.0,52.0,-5.0,-9.0,86.0,271,227,3.0,44,0,1,0,1,0,0,156,2048.0,20.0,193.0,154.0,0.0,255.0,17.0,1.0,2.0,0.0,0.0,0.0,0.0,0.0,0.0,0.0,0.0,8889.0,8890.0,173.0,24.0,165,2,8,0.043759,benign,,,,,,,,,,,,,,,,,,,,,,,,,,,,,,,,,,,,
28316.650775,70.0,0.0,-1.0,0.0,0,-1,0,72.0,84.0,19347.0,14.0,52.0,-4.0,-10.0,86.0,271,227,3.0,44,0,1,0,1,0,0,156,2048.0,20.0,193.0,154.0,0.0,255.0,17.0,1.0,2.0,0.0,0.0,0.0,0.0,0.0,0.0,0.0,0.0,8889.0,8890.0,173.0,24.0,165,2,8,0.043759,benign,,,,,,,,,,,,,,,,,,,,,,,,,,,,,,,,,,,,
28318.593075,70.0,0.0,-1.0,0.0,0,0,0,72.0,82.0,19342.0,14.0,52.0,-3.0,-7.0,85.0,290,228,3.0,44,0,1,0,1,0,0,196,2048.0,20.0,194.0,193.0,0.0,255.0,17.0,1.0,2.0,0.0,0.0,0.0,0.0,0.0,0.0,0.0,0.0,8889.0,8890.0,174.0,20.0,166,2,8,3.365974,benign,,,,,,,,,,,,,,,,,,,,,,,,,,,,,,,,,,,,
28318.858365,70.0,0.0,0.0,0.0,0,2,0,72.0,81.0,19345.0,15.0,52.0,-3.0,-5.0,84.0,290,228,3.0,44,0,1,0,1,0,0,196,2048.0,20.0,194.0,193.0,0.0,255.0,17.0,1.0,2.0,0.0,0.0,0.0,0.0,0.0,0.0,0.0,0.0,8889.0,8890.0,174.0,20.0,166,2,8,3.365974,benign,,,,,,,,,,,,,,,,,,,,,,,,,,,,,,,,,,,,
28319.122265,70.0,0.0,0.0,0.0,0,0,0,72.0,82.0,19351.0,15.0,52.0,-4.0,-7.0,83.0,290,228,3.0,44,0,1,0,1,0,0,196,2048.0,20.0,194.0,193.0,0.0,255.0,17.0,1.0,2.0,0.0,0.0,0.0,0.0,0.0,0.0,0.0,0.0,8889.0,8890.0,174.0,20.0,166,2,8,3.365974,benign,,,,,,,,,,,,,,,,,,,,,,,,,,,,,,,,,,,,
28319.42237,70.0,0.0,0.0,0.0,0,0,0,71.0,82.0,19343.0,16.0,52.0,-1.0,-10.0,85.0,292,26,0.0,60,1,0,1,0,0,0,0,0.0,0.0,0.0,0.0,0.0,0.0,0.0,0.0,0.0,0.0,0.0,0.0,0.0,0.0,0.0,0.0,0.0,0.0,0.0,0.0,0.0,0,2,12,0.072056,benign,,,,,,,,,,,,,,,,,,,,,,,,,,,,,,,,,,,,
28319.753135,70.0,0.0,0.0,0.0,0,0,0,71.0,83.0,19344.0,16.0,52.0,-1.0,-11.0,86.0,302,228,3.0,44,0,1,0,1,0,0,198,2048.0,20.0,194.0,195.0,0.0,255.0,17.0,1.0,2.0,0.0,0.0,0.0,0.0,0.0,0.0,0.0,0.0,8889.0,8890.0,174.0,18.0,166,2,8,0.029535,benign,,,,,,,,,,,,,,,,,,,,,,,,,,,,,,,,,,,,
28320.01613,70.0,0.0,0.0,0.0,0,0,0,72.0,84.0,19352.0,17.0,52.0,0.0,-15.0,86.0,302,228,3.0,44,0,1,0,1,0,0,198,2048.0,20.0,194.0,195.0,0.0,255.0,17.0,1.0,2.0,0.0,0.0,0.0,0.0,0.0,0.0,0.0,0.0,8889.0,8890.0,174.0,18.0,166,2,8,0.029535,benign,,,,,,,,,,,,,,,,,,,,,,,,,,,,,,,,,,,,
28320.28068,70.0,0.0,0.0,0.0,0,0,0,72.0,84.0,19343.0,17.0,52.0,0.0,-15.0,87.0,302,228,3.0,44,0,1,0,1,0,0,198,2048.0,20.0,194.0,195.0,0.0,255.0,17.0,1.0,2.0,0.0,0.0,0.0,0.0,0.0,0.0,0.0,0.0,8889.0,8890.0,174.0,18.0,166,2,8,0.029535,benign,,,,,,,,,,,,,,,,,,,,,,,,,,,,,,,,,,,,
28322.228655,70.0,0.0,0.0,0.0,-9,0,0,71.0,85.0,19344.0,18.0,52.0,1.0,-15.0,87.0,322,26,0.0,60,1,0,1,0,0,0,0,0.0,0.0,0.0,0.0,0.0,0.0,0.0,0.0,0.0,0.0,0.0,0.0,0.0,0.0,0.0,0.0,0.0,0.0,0.0,0.0,0.0,0,2,12,3.349416,benign,,,,,,,,,,,,,,,,,,,,,,,,,,,,,,,,,,,,
28322.490495,70.0,3.0,0.0,0.0,1,0,0,71.0,84.0,19346.0,19.0,52.0,19.0,-16.0,88.0,322,26,0.0,60,1,0,1,0,0,0,0,0.0,0.0,0.0,0.0,0.0,0.0,0.0,0.0,0.0,0.0,0.0,0.0,0.0,0.0,0.0,0.0,0.0,0.0,0.0,0.0,0.0,0,2,12,3.349416,benign,,,,,,,,,,,,,,,,,,,,,,,,,,,,,,,,,,,,
28322.754085,70.0,2.0,0.0,0.0,-1,0,0,71.0,84.0,19344.0,19.0,52.0,31.0,-15.0,91.0,322,26,0.0,60,1,0,1,0,0,0,0,0.0,0.0,0.0,0.0,0.0,0.0,0.0,0.0,0.0,0.0,0.0,0.0,0.0,0.0,0.0,0.0,0.0,0.0,0.0,0.0,0.0,0,2,12,3.349416,benign,,,,,,,,,,,,,,,,,,,,,,,,,,,,,,,,,,,,
28323.12102,70.0,2.0,0.0,0.0,-1,-1,0,71.0,83.0,19339.0,20.0,52.0,44.0,9.0,82.0,340,26,0.0,60,1,0,1,0,0,0,0,0.0,0.0,0.0,0.0,0.0,0.0,0.0,0.0,0.0,0.0,0.0,0.0,0.0,0.0,0.0,0.0,0.0,0.0,0.0,0.0,0.0,0,2,12,0.029882,benign,,,,,,,,,,,,,,,,,,,,,,,,,,,,,,,,,,,,
28323.379575,70.0,2.0,0.0,0.0,0,-1,0,72.0,83.0,19339.0,20.0,52.0,31.0,15.0,80.0,340,26,0.0,60,1,0,1,0,0,0,0,0.0,0.0,0.0,0.0,0.0,0.0,0.0,0.0,0.0,0.0,0.0,0.0,0.0,0.0,0.0,0.0,0.0,0.0,0.0,0.0,0.0,0,2,12,0.029882,benign,,,,,,,,,,,,,,,,,,,,,,,,,,,,,,,,,,,,
28323.65934,70.0,0.0,0.0,0.0,2,2,0,72.0,82.0,19341.0,21.0,52.0,18.0,13.0,82.0,340,26,0.0,60,1,0,1,0,0,0,0,0.0,0.0,0.0,0.0,0.0,0.0,0.0,0.0,0.0,0.0,0.0,0.0,0.0,0.0,0.0,0.0,0.0,0.0,0.0,0.0,0.0,0,2,12,0.029882,benign,,,,,,,,,,,,,,,,,,,,,,,,,,,,,,,,,,,,
28323.9199,70.0,0.0,0.0,0.0,-2,-2,0,71.0,84.0,19342.0,21.0,52.0,13.0,11.0,83.0,340,26,0.0,60,1,0,1,0,0,0,0,0.0,0.0,0.0,0.0,0.0,0.0,0.0,0.0,0.0,0.0,0.0,0.0,0.0,0.0,0.0,0.0,0.0,0.0,0.0,0.0,0.0,0,2,12,0.029882,benign,,,,,,,,,,,,,,,,,,,,,,,,,,,,,,,,,,,,
28325.878745,70.0,1.0,0.0,0.0,0,-1,0,71.0,83.0,19344.0,22.0,52.0,10.0,11.0,83.0,356,26,0.0,60,1,0,1,0,0,0,0,0.0,0.0,0.0,0.0,0.0,0.0,0.0,0.0,0.0,0.0,0.0,0.0,0.0,0.0,0.0,0.0,0.0,0.0,0.0,0.0,0.0,0,2,12,3.379171,benign,,,,,,,,,,,,,,,,,,,,,,,,,,,,,,,,,,,,
28326.1403,70.0,0.0,-1.0,0.0,0,-1,0,71.0,80.0,19344.0,22.0,52.0,3.0,9.0,81.0,356,26,0.0,60,1,0,1,0,0,0,0,0.0,0.0,0.0,0.0,0.0,0.0,0.0,0.0,0.0,0.0,0.0,0.0,0.0,0.0,0.0,0.0,0.0,0.0,0.0,0.0,0.0,0,2,12,3.379171,benign,,,,,,,,,,,,,,,,,,,,,,,,,,,,,,,,,,,,
28326.40401,70.0,0.0,-1.0,0.0,0,0,0,71.0,79.0,19330.0,23.0,52.0,0.0,6.0,79.0,356,26,0.0,60,1,0,1,0,0,0,0,0.0,0.0,0.0,0.0,0.0,0.0,0.0,0.0,0.0,0.0,0.0,0.0,0.0,0.0,0.0,0.0,0.0,0.0,0.0,0.0,0.0,0,2,12,3.379171,benign,,,,,,,,,,,,,,,,,,,,,,,,,,,,,,,,,,,,
28326.770975,60.0,0.0,0.0,0.0,0,0,0,71.0,78.0,19340.0,23.0,52.0,0.0,5.0,79.0,368,230,3.0,44,0,1,0,1,0,0,280,2048.0,20.0,196.0,277.0,0.0,255.0,17.0,1.0,2.0,0.0,0.0,0.0,0.0,0.0,0.0,0.0,0.0,8889.0,8890.0,176.0,43.0,168,2,8,0.00132,benign,,,,,,,,,,,,,,,,,,,,,,,,,,,,,,,,,,,,
28327.035730000003,60.0,0.0,0.0,0.0,0,0,0,71.0,78.0,19334.0,24.0,52.0,0.0,7.0,79.0,368,230,3.0,44,0,1,0,1,0,0,280,2048.0,20.0,196.0,277.0,0.0,255.0,17.0,1.0,2.0,0.0,0.0,0.0,0.0,0.0,0.0,0.0,0.0,8889.0,8890.0,176.0,43.0,168,2,8,0.00132,benign,,,,,,,,,,,,,,,,,,,,,,,,,,,,,,,,,,,,
28327.309945,70.0,2.0,0.0,0.0,-8,0,0,71.0,79.0,19334.0,24.0,52.0,0.0,12.0,79.0,368,230,3.0,44,0,1,0,1,0,0,280,2048.0,20.0,196.0,277.0,0.0,255.0,17.0,1.0,2.0,0.0,0.0,0.0,0.0,0.0,0.0,0.0,0.0,8889.0,8890.0,176.0,43.0,168,2,8,0.00132,benign,,,,,,,,,,,,,,,,,,,,,,,,,,,,,,,,,,,,
28329.263555,70.0,3.0,0.0,0.0,0,0,0,71.0,79.0,19333.0,25.0,52.0,-25.0,22.0,75.0,395,26,0.0,60,1,0,1,0,0,0,0,0.0,0.0,0.0,0.0,0.0,0.0,0.0,0.0,0.0,0.0,0.0,0.0,0.0,0.0,0.0,0.0,0.0,0.0,0.0,0.0,0.0,0,2,12,3.377614,benign,,,,,,,,,,,,,,,,,,,,,,,,,,,,,,,,,,,,
28329.528335000003,70.0,2.0,0.0,0.0,0,-1,0,71.0,79.0,19339.0,25.0,52.0,-34.0,24.0,77.0,395,26,0.0,60,1,0,1,0,0,0,0,0.0,0.0,0.0,0.0,0.0,0.0,0.0,0.0,0.0,0.0,0.0,0.0,0.0,0.0,0.0,0.0,0.0,0.0,0.0,0.0,0.0,0,2,12,3.377614,benign,,,,,,,,,,,,,,,,,,,,,,,,,,,,,,,,,,,,
28329.77927,70.0,2.0,0.0,0.0,-1,-1,0,71.0,79.0,19337.0,26.0,52.0,-34.0,-35.0,76.0,395,26,0.0,60,1,0,1,0,0,0,0,0.0,0.0,0.0,0.0,0.0,0.0,0.0,0.0,0.0,0.0,0.0,0.0,0.0,0.0,0.0,0.0,0.0,0.0,0.0,0.0,0.0,0,2,12,3.377614,benign,,,,,,,,,,,,,,,,,,,,,,,,,,,,,,,,,,,,
28330.044815,70.0,2.0,-1.0,0.0,0,-1,0,71.0,79.0,19334.0,27.0,52.0,-23.0,-23.0,82.0,395,26,0.0,60,1,0,1,0,0,0,0,0.0,0.0,0.0,0.0,0.0,0.0,0.0,0.0,0.0,0.0,0.0,0.0,0.0,0.0,0.0,0.0,0.0,0.0,0.0,0.0,0.0,0,2,12,3.377614,benign,,,,,,,,,,,,,,,,,,,,,,,,,,,,,,,,,,,,
28330.41222,70.0,1.0,-1.0,0.0,0,-1,0,70.0,78.0,19336.0,27.0,52.0,-13.0,-25.0,78.0,403,26,0.0,60,1,0,1,0,0,0,0,0.0,0.0,0.0,0.0,0.0,0.0,0.0,0.0,0.0,0.0,0.0,0.0,0.0,0.0,0.0,0.0,0.0,0.0,0.0,0.0,0.0,0,2,12,0.063158,benign,,,,,,,,,,,,,,,,,,,,,,,,,,,,,,,,,,,,
28330.67664,70.0,0.0,0.0,0.0,0,2,0,70.0,79.0,19339.0,28.0,52.0,-11.0,-20.0,78.0,403,26,0.0,60,1,0,1,0,0,0,0,0.0,0.0,0.0,0.0,0.0,0.0,0.0,0.0,0.0,0.0,0.0,0.0,0.0,0.0,0.0,0.0,0.0,0.0,0.0,0.0,0.0,0,2,12,0.063158,benign,,,,,,,,,,,,,,,,,,,,,,,,,,,,,,,,,,,,
28330.940825,70.0,0.0,0.0,0.0,-2,-2,0,70.0,79.0,19345.0,28.0,52.0,-8.0,-18.0,79.0,403,26,0.0,60,1,0,1,0,0,0,0,0.0,0.0,0.0,0.0,0.0,0.0,0.0,0.0,0.0,0.0,0.0,0.0,0.0,0.0,0.0,0.0,0.0,0.0,0.0,0.0,0.0,0,2,12,0.063158,benign,,,,,,,,,,,,,,,,,,,,,,,,,,,,,,,,,,,,
28332.88581,70.0,0.0,-1.0,0.0,0,0,0,70.0,79.0,19337.0,29.0,52.0,-8.0,-19.0,79.0,444,26,0.0,60,1,0,1,0,0,0,0,0.0,0.0,0.0,0.0,0.0,0.0,0.0,0.0,0.0,0.0,0.0,0.0,0.0,0.0,0.0,0.0,0.0,0.0,0.0,0.0,0.0,0,2,12,3.379354,benign,,,,,,,,,,,,,,,,,,,,,,,,,,,,,,,,,,,,
28333.160435,70.0,0.0,-1.0,0.0,0,0,0,70.0,78.0,19339.0,29.0,52.0,-3.0,-9.0,80.0,444,26,0.0,60,1,0,1,0,0,0,0,0.0,0.0,0.0,0.0,0.0,0.0,0.0,0.0,0.0,0.0,0.0,0.0,0.0,0.0,0.0,0.0,0.0,0.0,0.0,0.0,0.0,0,2,12,3.379354,benign,,,,,,,,,,,,,,,,,,,,,,,,,,,,,,,,,,,,
28333.41615,70.0,0.0,-1.0,0.0,0,0,0,70.0,78.0,19339.0,30.0,52.0,-3.0,-6.0,79.0,444,26,0.0,60,1,0,1,0,0,0,0,0.0,0.0,0.0,0.0,0.0,0.0,0.0,0.0,0.0,0.0,0.0,0.0,0.0,0.0,0.0,0.0,0.0,0.0,0.0,0.0,0.0,0,2,12,3.379354,benign,,,,,,,,,,,,,,,,,,,,,,,,,,,,,,,,,,,,
28333.709105,60.0,0.0,0.0,0.0,0,0,0,71.0,77.0,19338.0,30.0,52.0,-4.0,-4.0,78.0,446,227,3.0,44,0,1,0,1,0,0,363,2048.0,20.0,193.0,359.0,0.0,255.0,17.0,1.0,2.0,0.0,0.0,0.0,0.0,0.0,0.0,0.0,0.0,8889.0,8890.0,173.0,55.0,165,2,8,0.024951,benign,,,,,,,,,,,,,,,,,,,,,,,,,,,,,,,,,,,,
28334.02512,60.0,0.0,0.0,0.0,0,0,0,71.0,77.0,19342.0,31.0,52.0,-4.0,-8.0,78.0,454,64,3.0,44,0,1,0,1,0,0,366,2048.0,20.0,30.0,362.0,0.0,255.0,17.0,1.0,2.0,0.0,0.0,0.0,0.0,0.0,0.0,0.0,0.0,8889.0,8889.0,10.0,66.0,2,2,8,0.000151,benign,,,,,,,,,,,,,,,,,,,,,,,,,,,,,,,,,,,,
28334.28761,60.0,2.0,0.0,0.0,-8,0,0,70.0,79.0,19336.0,31.0,52.0,-6.0,-10.0,78.0,454,64,3.0,44,0,1,0,1,0,0,366,2048.0,20.0,30.0,362.0,0.0,255.0,17.0,1.0,2.0,0.0,0.0,0.0,0.0,0.0,0.0,0.0,0.0,8889.0,8889.0,10.0,66.0,2,2,8,0.000151,benign,,,,,,,,,,,,,,,,,,,,,,,,,,,,,,,,,,,,
28334.53789,70.0,3.0,0.0,0.0,0,0,0,70.0,78.0,19338.0,32.0,52.0,10.0,-16.0,78.0,454,64,3.0,44,0,1,0,1,0,0,366,2048.0,20.0,30.0,362.0,0.0,255.0,17.0,1.0,2.0,0.0,0.0,0.0,0.0,0.0,0.0,0.0,0.0,8889.0,8889.0,10.0,66.0,2,2,8,0.000151,benign,,,,,,,,,,,,,,,,,,,,,,,,,,,,,,,,,,,,
28336.53924,70.0,2.0,0.0,0.0,-1,-1,0,70.0,78.0,19337.0,32.0,52.0,21.0,-21.0,77.0,469,26,0.0,60,1,0,1,0,0,0,0,0.0,0.0,0.0,0.0,0.0,0.0,0.0,0.0,0.0,0.0,0.0,0.0,0.0,0.0,0.0,0.0,0.0,0.0,0.0,0.0,0.0,0,2,12,3.456156,benign,,,,,,,,,,,,,,,,,,,,,,,,,,,,,,,,,,,,
28336.797595,60.0,2.0,0.0,0.0,-1,-1,0,70.0,77.0,19329.0,33.0,52.0,34.0,-24.0,78.0,469,26,0.0,60,1,0,1,0,0,0,0,0.0,0.0,0.0,0.0,0.0,0.0,0.0,0.0,0.0,0.0,0.0,0.0,0.0,0.0,0.0,0.0,0.0,0.0,0.0,0.0,0.0,0,2,12,3.456156,benign,,,,,,,,,,,,,,,,,,,,,,,,,,,,,,,,,,,,
28337.06321,60.0,2.0,0.0,0.0,-1,0,0,70.0,78.0,19337.0,33.0,52.0,-31.0,-3.0,81.0,469,26,0.0,60,1,0,1,0,0,0,0,0.0,0.0,0.0,0.0,0.0,0.0,0.0,0.0,0.0,0.0,0.0,0.0,0.0,0.0,0.0,0.0,0.0,0.0,0.0,0.0,0.0,0,2,12,3.456156,benign,,,,,,,,,,,,,,,,,,,,,,,,,,,,,,,,,,,,
28337.383895,70.0,2.0,-1.0,0.0,-1,-1,0,71.0,79.0,19340.0,34.0,52.0,-21.0,-9.0,81.0,481,228,3.0,44,0,1,0,1,0,0,407,2048.0,20.0,194.0,403.0,0.0,255.0,17.0,1.0,2.0,0.0,0.0,0.0,0.0,0.0,0.0,0.0,0.0,8889.0,8890.0,174.0,61.0,166,2,8,0.011324,benign,,,,,,,,,,,,,,,,,,,,,,,,,,,,,,,,,,,,
28337.65879,70.0,0.0,0.0,0.0,0,0,0,71.0,81.0,19338.0,34.0,52.0,-12.0,-4.0,83.0,481,228,3.0,44,0,1,0,1,0,0,407,2048.0,20.0,194.0,403.0,0.0,255.0,17.0,1.0,2.0,0.0,0.0,0.0,0.0,0.0,0.0,0.0,0.0,8889.0,8890.0,174.0,61.0,166,2,8,0.011324,benign,,,,,,,,,,,,,,,,,,,,,,,,,,,,,,,,,,,,
28337.91712,70.0,0.0,0.0,0.0,-1,0,0,70.0,80.0,19334.0,35.0,52.0,-7.0,-2.0,83.0,481,228,3.0,44,0,1,0,1,0,0,407,2048.0,20.0,194.0,403.0,0.0,255.0,17.0,1.0,2.0,0.0,0.0,0.0,0.0,0.0,0.0,0.0,0.0,8889.0,8890.0,174.0,61.0,166,2,8,0.011324,benign,,,,,,,,,,,,,,,,,,,,,,,,,,,,,,,,,,,,
28338.1783,70.0,0.0,0.0,0.0,0,0,0,70.0,79.0,19338.0,35.0,52.0,-4.0,-8.0,81.0,481,228,3.0,44,0,1,0,1,0,0,407,2048.0,20.0,194.0,403.0,0.0,255.0,17.0,1.0,2.0,0.0,0.0,0.0,0.0,0.0,0.0,0.0,0.0,8889.0,8890.0,174.0,61.0,166,2,8,0.011324,benign,,,,,,,,,,,,,,,,,,,,,,,,,,,,,,,,,,,,
28340.15217,60.0,0.0,0.0,0.0,0,0,0,70.0,78.0,19335.0,36.0,52.0,-4.0,-9.0,80.0,512,75,3.0,44,0,1,0,1,0,0,448,2048.0,20.0,41.0,443.0,0.0,255.0,17.0,1.0,2.0,0.0,0.0,0.0,0.0,0.0,0.0,0.0,0.0,8889.0,8899.0,21.0,72.0,13,2,8,3.418706,benign,,,,,,,,,,,,,,,,,,,,,,,,,,,,,,,,,,,,
28340.41657,70.0,0.0,0.0,0.0,0,0,3,70.0,79.0,19342.0,37.0,52.0,-3.0,-5.0,81.0,512,75,3.0,44,0,1,0,1,0,0,448,2048.0,20.0,41.0,443.0,0.0,255.0,17.0,1.0,2.0,0.0,0.0,0.0,0.0,0.0,0.0,0.0,0.0,8889.0,8899.0,21.0,72.0,13,2,8,3.418706,benign,,,,,,,,,,,,,,,,,,,,,,,,,,,,,,,,,,,,
28340.67971,70.0,0.0,0.0,0.0,0,0,33,70.0,79.0,19334.0,37.0,52.0,-4.0,-4.0,81.0,512,75,3.0,44,0,1,0,1,0,0,448,2048.0,20.0,41.0,443.0,0.0,255.0,17.0,1.0,2.0,0.0,0.0,0.0,0.0,0.0,0.0,0.0,0.0,8889.0,8899.0,21.0,72.0,13,2,8,3.418706,benign,,,,,,,,,,,,,,,,,,,,,,,,,,,,,,,,,,,,
28341.046025,70.0,0.0,0.0,0.0,0,0,68,70.0,80.0,19335.0,38.0,52.0,-3.0,-7.0,81.0,523,74,3.0,44,0,1,0,1,0,0,451,2048.0,20.0,40.0,446.0,0.0,255.0,17.0,1.0,2.0,0.0,0.0,0.0,0.0,0.0,0.0,0.0,0.0,8889.0,8899.0,20.0,68.0,12,2,8,0.049035,benign,,,,,,,,,,,,,,,,,,,,,,,,,,,,,,,,,,,,
28341.310585,70.0,0.0,0.0,0.0,0,0,99,70.0,78.0,19334.0,38.0,52.0,-6.0,-11.0,80.0,523,74,3.0,44,0,1,0,1,0,0,451,2048.0,20.0,40.0,446.0,0.0,255.0,17.0,1.0,2.0,0.0,0.0,0.0,0.0,0.0,0.0,0.0,0.0,8889.0,8899.0,20.0,68.0,12,2,8,0.049035,benign,,,,,,,,,,,,,,,,,,,,,,,,,,,,,,,,,,,,
28341.57703,60.0,0.0,0.0,0.0,0,0,135,70.0,77.0,19342.0,39.0,52.0,-3.0,-13.0,79.0,523,74,3.0,44,0,1,0,1,0,0,451,2048.0,20.0,40.0,446.0,0.0,255.0,17.0,1.0,2.0,0.0,0.0,0.0,0.0,0.0,0.0,0.0,0.0,8889.0,8899.0,20.0,68.0,12,2,8,0.049035,benign,,,,,,,,,,,,,,,,,,,,,,,,,,,,,,,,,,,,
28343.515835,60.0,0.0,0.0,0.0,0,0,164,70.0,77.0,19337.0,39.0,52.0,-6.0,-15.0,78.0,537,26,0.0,60,1,0,1,0,0,0,0,0.0,0.0,0.0,0.0,0.0,0.0,0.0,0.0,0.0,0.0,0.0,0.0,0.0,0.0,0.0,0.0,0.0,0.0,0.0,0.0,0.0,0,2,12,3.329943,benign,,,,,,,,,,,,,,,,,,,,,,,,,,,,,,,,,,,,
28343.77989,60.0,0.0,0.0,0.0,0,0,176,70.0,76.0,19333.0,40.0,52.0,-3.0,-16.0,78.0,537,26,0.0,60,1,0,1,0,0,0,0,0.0,0.0,0.0,0.0,0.0,0.0,0.0,0.0,0.0,0.0,0.0,0.0,0.0,0.0,0.0,0.0,0.0,0.0,0.0,0.0,0.0,0,2,12,3.329943,benign,,,,,,,,,,,,,,,,,,,,,,,,,,,,,,,,,,,,
28344.03802,60.0,0.0,0.0,0.0,0,0,178,70.0,77.0,19333.0,40.0,52.0,-5.0,-15.0,79.0,537,26,0.0,60,1,0,1,0,0,0,0,0.0,0.0,0.0,0.0,0.0,0.0,0.0,0.0,0.0,0.0,0.0,0.0,0.0,0.0,0.0,0.0,0.0,0.0,0.0,0.0,0.0,0,2,12,3.329943,benign,,,,,,,,,,,,,,,,,,,,,,,,,,,,,,,,,,,,
28344.30281,70.0,0.0,0.0,0.0,0,0,178,70.0,78.0,19335.0,41.0,52.0,-5.0,-13.0,80.0,537,26,0.0,60,1,0,1,0,0,0,0,0.0,0.0,0.0,0.0,0.0,0.0,0.0,0.0,0.0,0.0,0.0,0.0,0.0,0.0,0.0,0.0,0.0,0.0,0.0,0.0,0.0,0,2,12,3.329943,benign,,,,,,,,,,,,,,,,,,,,,,,,,,,,,,,,,,,,
28344.682165,70.0,0.0,0.0,0.0,-5,0,178,70.0,79.0,19335.0,41.0,52.0,-4.0,-12.0,81.0,547,233,3.0,44,0,1,0,1,0,0,492,2048.0,20.0,199.0,487.0,0.0,255.0,17.0,1.0,2.0,0.0,0.0,0.0,0.0,0.0,0.0,0.0,0.0,8889.0,8890.0,179.0,59.0,171,2,8,0.0361,benign,,,,,,,,,,,,,,,,,,,,,,,,,,,,,,,,,,,,
28344.93991,70.0,-4.0,0.0,0.0,-1,0,178,70.0,79.0,19343.0,42.0,52.0,-15.0,-13.0,80.0,547,233,3.0,44,0,1,0,1,0,0,492,2048.0,20.0,199.0,487.0,0.0,255.0,17.0,1.0,2.0,0.0,0.0,0.0,0.0,0.0,0.0,0.0,0.0,8889.0,8890.0,179.0,59.0,171,2,8,0.0361,benign,,,,,,,,,,,,,,,,,,,,,,,,,,,,,,,,,,,,
28345.1983,70.0,-2.0,0.0,0.0,0,0,178,70.0,78.0,19339.0,42.0,52.0,-35.0,-5.0,86.0,547,233,3.0,44,0,1,0,1,0,0,492,2048.0,20.0,199.0,487.0,0.0,255.0,17.0,1.0,2.0,0.0,0.0,0.0,0.0,0.0,0.0,0.0,0.0,8889.0,8890.0,179.0,59.0,171,2,8,0.0361,benign,,,,,,,,,,,,,,,,,,,,,,,,,,,,,,,,,,,,
28347.137845,70.0,-2.0,0.0,0.0,0,0,178,70.0,78.0,19346.0,43.0,52.0,-35.0,-5.0,86.0,630,234,3.0,44,0,1,0,1,0,0,533,2048.0,20.0,200.0,526.0,0.0,255.0,17.0,1.0,2.0,0.0,0.0,0.0,0.0,0.0,0.0,0.0,0.0,8889.0,8890.0,180.0,57.0,172,2,8,3.365973,benign,,,,,,,,,,,,,,,,,,,,,,,,,,,,,,,,,,,,
28347.403380000003,70.0,-2.0,0.0,0.0,0,0,178,70.0,78.0,19343.0,43.0,52.0,12.0,-30.0,76.0,630,234,3.0,44,0,1,0,1,0,0,533,2048.0,20.0,200.0,526.0,0.0,255.0,17.0,1.0,2.0,0.0,0.0,0.0,0.0,0.0,0.0,0.0,0.0,8889.0,8890.0,180.0,57.0,172,2,8,3.365973,benign,,,,,,,,,,,,,,,,,,,,,,,,,,,,,,,,,,,,
28347.66139,70.0,-1.0,0.0,0.0,5,0,178,70.0,77.0,19337.0,44.0,52.0,3.0,-29.0,76.0,630,234,3.0,44,0,1,0,1,0,0,533,2048.0,20.0,200.0,526.0,0.0,255.0,17.0,1.0,2.0,0.0,0.0,0.0,0.0,0.0,0.0,0.0,0.0,8889.0,8890.0,180.0,57.0,172,2,8,3.365973,benign,,,,,,,,,,,,,,,,,,,,,,,,,,,,,,,,,,,,
28347.91784,60.0,0.0,0.0,0.0,0,2,178,70.0,76.0,19341.0,44.0,52.0,-4.0,-29.0,75.0,630,234,3.0,44,0,1,0,1,0,0,533,2048.0,20.0,200.0,526.0,0.0,255.0,17.0,1.0,2.0,0.0,0.0,0.0,0.0,0.0,0.0,0.0,0.0,8889.0,8890.0,180.0,57.0,172,2,8,3.365973,benign,,,,,,,,,,,,,,,,,,,,,,,,,,,,,,,,,,,,
28348.30107,70.0,0.0,-2.0,0.0,0,0,178,70.0,77.0,19341.0,45.0,52.0,-5.0,-17.0,78.0,641,235,3.0,44,0,1,0,1,0,0,536,2048.0,20.0,201.0,529.0,0.0,255.0,17.0,1.0,2.0,0.0,0.0,0.0,0.0,0.0,0.0,0.0,0.0,8889.0,8890.0,181.0,51.0,173,2,8,0.022279,benign,,,,,,,,,,,,,,,,,,,,,,,,,,,,,,,,,,,,
28348.565685,70.0,0.0,-1.0,0.0,0,0,178,70.0,77.0,19338.0,45.0,52.0,-6.0,-7.0,78.0,641,235,3.0,44,0,1,0,1,0,0,536,2048.0,20.0,201.0,529.0,0.0,255.0,17.0,1.0,2.0,0.0,0.0,0.0,0.0,0.0,0.0,0.0,0.0,8889.0,8890.0,181.0,51.0,173,2,8,0.022279,benign,,,,,,,,,,,,,,,,,,,,,,,,,,,,,,,,,,,,
28350.16038,70.0,0.0,0.0,0.0,0,-1,178,70.0,78.0,19340.0,46.0,52.0,-6.0,-3.0,79.0,655,98,0.0,320,2,1,2,1,0,0,595,0.0,0.0,0.0,0.0,0.0,0.0,0.0,0.0,0.0,0.0,0.0,0.0,0.0,0.0,0.0,0.0,0.0,0.0,0.0,0.0,0.0,0,0,5,2.662785,benign,,,,,,,,,,,,,,,,,,,,,,,,,,,,,,,,,,,,
28350.424675,70.0,0.0,0.0,0.0,0,0,178,70.0,79.0,19339.0,47.0,52.0,-8.0,-1.0,79.0,655,98,0.0,320,2,1,2,1,0,0,595,0.0,0.0,0.0,0.0,0.0,0.0,0.0,0.0,0.0,0.0,0.0,0.0,0.0,0.0,0.0,0.0,0.0,0.0,0.0,0.0,0.0,0,0,5,2.662785,benign,,,,,,,,,,,,,,,,,,,,,,,,,,,,,,,,,,,,
28350.68847,70.0,0.0,0.0,0.0,0,0,178,70.0,79.0,19343.0,47.0,52.0,-13.0,1.0,78.0,655,98,0.0,320,2,1,2,1,0,0,595,0.0,0.0,0.0,0.0,0.0,0.0,0.0,0.0,0.0,0.0,0.0,0.0,0.0,0.0,0.0,0.0,0.0,0.0,0.0,0.0,0.0,0,0,5,2.662785,benign,,,,,,,,,,,,,,,,,,,,,,,,,,,,,,,,,,,,
28350.946965000003,70.0,-2.0,0.0,0.0,-1,0,178,70.0,78.0,19339.0,48.0,52.0,-13.0,0.0,79.0,656,98,0.0,320,2,1,2,1,0,0,595,0.0,0.0,0.0,0.0,0.0,0.0,0.0,0.0,0.0,0.0,0.0,0.0,0.0,0.0,0.0,0.0,0.0,0.0,0.0,0.0,0.0,0,0,5,0.001339,benign,,,,,,,,,,,,,,,,,,,,,,,,,,,,,,,,,,,,
28351.610105,70.0,-2.0,0.0,0.0,-1,0,178,69.0,78.0,19329.0,48.0,52.0,-28.0,0.0,78.0,666,235,3.0,44,0,1,0,1,0,0,577,2048.0,20.0,201.0,570.0,0.0,255.0,17.0,1.0,2.0,0.0,0.0,0.0,0.0,0.0,0.0,0.0,0.0,8889.0,8890.0,181.0,49.0,173,2,8,0.008341,benign,,,,,,,,,,,,,,,,,,,,,,,,,,,,,,,,,,,,
28351.92013,70.0,-2.0,0.0,0.0,4,0,178,69.0,77.0,19329.0,49.0,52.0,-52.0,-3.0,70.0,670,235,3.0,44,0,1,0,1,0,0,578,2048.0,20.0,201.0,571.0,0.0,255.0,17.0,1.0,2.0,0.0,0.0,0.0,0.0,0.0,0.0,0.0,0.0,8889.0,8890.0,181.0,48.0,173,2,8,0.007903,benign,,,,,,,,,,,,,,,,,,,,,,,,,,,,,,,,,,,,
28352.175375,60.0,0.0,0.0,0.0,6,0,178,69.0,78.0,19345.0,49.0,52.0,-37.0,6.0,77.0,670,235,3.0,44,0,1,0,1,0,0,578,2048.0,20.0,201.0,571.0,0.0,255.0,17.0,1.0,2.0,0.0,0.0,0.0,0.0,0.0,0.0,0.0,0.0,8889.0,8890.0,181.0,48.0,173,2,8,0.007903,benign,,,,,,,,,,,,,,,,,,,,,,,,,,,,,,,,,,,,
28352.4407,70.0,2.0,0.0,0.0,0,0,179,69.0,78.0,19344.0,50.0,52.0,-61.0,8.0,60.0,670,235,3.0,44,0,1,0,1,0,0,578,2048.0,20.0,201.0,571.0,0.0,255.0,17.0,1.0,2.0,0.0,0.0,0.0,0.0,0.0,0.0,0.0,0.0,8889.0,8890.0,181.0,48.0,173,2,8,0.007903,benign,,,,,,,,,,,,,,,,,,,,,,,,,,,,,,,,,,,,
28354.381175,70.0,2.0,0.0,0.0,0,0,178,69.0,79.0,19341.0,50.0,52.0,-32.0,0.0,78.0,684,232,3.0,44,0,1,0,1,0,0,620,2048.0,20.0,198.0,612.0,0.0,255.0,17.0,1.0,2.0,0.0,0.0,0.0,0.0,0.0,0.0,0.0,0.0,8889.0,8890.0,178.0,46.0,170,2,8,3.366758,benign,,,,,,,,,,,,,,,,,,,,,,,,,,,,,,,,,,,,
28354.637375,70.0,2.0,0.0,0.0,-5,0,178,69.0,80.0,19340.0,51.0,52.0,-18.0,0.0,80.0,684,232,3.0,44,0,1,0,1,0,0,620,2048.0,20.0,198.0,612.0,0.0,255.0,17.0,1.0,2.0,0.0,0.0,0.0,0.0,0.0,0.0,0.0,0.0,8889.0,8890.0,178.0,46.0,170,2,8,3.366758,benign,,,,,,,,,,,,,,,,,,,,,,,,,,,,,,,,,,,,
28354.89618,70.0,0.0,0.0,0.0,2,0,178,69.0,80.0,19341.0,51.0,52.0,-8.0,-2.0,81.0,684,232,3.0,44,0,1,0,1,0,0,620,2048.0,20.0,198.0,612.0,0.0,255.0,17.0,1.0,2.0,0.0,0.0,0.0,0.0,0.0,0.0,0.0,0.0,8889.0,8890.0,178.0,46.0,170,2,8,3.366758,benign,,,,,,,,,,,,,,,,,,,,,,,,,,,,,,,,,,,,
28355.258615,70.0,1.0,0.0,0.0,0,0,178,69.0,80.0,19346.0,52.0,52.0,-6.0,-2.0,81.0,693,232,3.0,44,0,1,0,1,0,0,622,2048.0,20.0,198.0,614.0,0.0,255.0,17.0,1.0,2.0,0.0,0.0,0.0,0.0,0.0,0.0,0.0,0.0,8889.0,8890.0,178.0,56.0,170,2,8,0.097389,benign,,,,,,,,,,,,,,,,,,,,,,,,,,,,,,,,,,,,
28355.526635,70.0,0.0,0.0,0.0,-5,0,178,69.0,80.0,19337.0,52.0,52.0,-10.0,0.0,80.0,695,26,0.0,60,1,0,1,0,0,0,0,0.0,0.0,0.0,0.0,0.0,0.0,0.0,0.0,0.0,0.0,0.0,0.0,0.0,0.0,0.0,0.0,0.0,0.0,0.0,0.0,0.0,0,2,12,0.00494,benign,,,,,,,,,,,,,,,,,,,,,,,,,,,,,,,,,,,,
28355.791935,70.0,-4.0,0.0,0.0,0,0,179,69.0,80.0,19337.0,53.0,52.0,-13.0,-5.0,80.0,695,26,0.0,60,1,0,1,0,0,0,0,0.0,0.0,0.0,0.0,0.0,0.0,0.0,0.0,0.0,0.0,0.0,0.0,0.0,0.0,0.0,0.0,0.0,0.0,0.0,0.0,0.0,0,2,12,0.00494,benign,,,,,,,,,,,,,,,,,,,,,,,,,,,,,,,,,,,,
28356.056265,70.0,-2.0,0.0,0.0,0,0,178,70.0,81.0,19342.0,53.0,52.0,-34.0,0.0,80.0,695,26,0.0,60,1,0,1,0,0,0,0,0.0,0.0,0.0,0.0,0.0,0.0,0.0,0.0,0.0,0.0,0.0,0.0,0.0,0.0,0.0,0.0,0.0,0.0,0.0,0.0,0.0,0,2,12,0.00494,benign,,,,,,,,,,,,,,,,,,,,,,,,,,,,,,,,,,,,
28358.00916,70.0,-2.0,0.0,0.0,0,0,178,70.0,81.0,19332.0,54.0,52.0,-48.0,-7.0,76.0,711,26,0.0,60,1,0,1,0,0,0,0,0.0,0.0,0.0,0.0,0.0,0.0,0.0,0.0,0.0,0.0,0.0,0.0,0.0,0.0,0.0,0.0,0.0,0.0,0.0,0.0,0.0,0,2,12,3.379402,benign,,,,,,,,,,,,,,,,,,,,,,,,,,,,,,,,,,,,
28358.27149,70.0,-2.0,0.0,0.0,0,0,178,70.0,81.0,19336.0,54.0,52.0,-25.0,5.0,80.0,711,26,0.0,60,1,0,1,0,0,0,0,0.0,0.0,0.0,0.0,0.0,0.0,0.0,0.0,0.0,0.0,0.0,0.0,0.0,0.0,0.0,0.0,0.0,0.0,0.0,0.0,0.0,0,2,12,3.379402,benign,,,,,,,,,,,,,,,,,,,,,,,,,,,,,,,,,,,,
28358.53678,70.0,-1.0,0.0,0.0,2,0,178,70.0,80.0,19339.0,55.0,52.0,-5.0,3.0,82.0,711,26,0.0,60,1,0,1,0,0,0,0,0.0,0.0,0.0,0.0,0.0,0.0,0.0,0.0,0.0,0.0,0.0,0.0,0.0,0.0,0.0,0.0,0.0,0.0,0.0,0.0,0.0,0,2,12,3.379402,benign,,,,,,,,,,,,,,,,,,,,,,,,,,,,,,,,,,,,
28358.892085,70.0,0.0,0.0,0.0,0,0,178,70.0,80.0,19340.0,55.0,52.0,-3.0,2.0,82.0,719,75,3.0,44,0,1,0,1,0,0,663,2048.0,20.0,41.0,655.0,0.0,255.0,17.0,1.0,2.0,0.0,0.0,0.0,0.0,0.0,0.0,0.0,0.0,8889.0,8899.0,21.0,73.0,13,2,8,0.050746,benign,,,,,,,,,,,,,,,,,,,,,,,,,,,,,,,,,,,,
28359.15074,70.0,0.0,0.0,0.0,0,0,178,70.0,83.0,19337.0,56.0,52.0,-3.0,2.0,83.0,719,75,3.0,44,0,1,0,1,0,0,663,2048.0,20.0,41.0,655.0,0.0,255.0,17.0,1.0,2.0,0.0,0.0,0.0,0.0,0.0,0.0,0.0,0.0,8889.0,8899.0,21.0,73.0,13,2,8,0.050746,benign,,,,,,,,,,,,,,,,,,,,,,,,,,,,,,,,,,,,
28359.4203,70.0,0.0,0.0,0.0,0,0,178,70.0,82.0,19338.0,57.0,52.0,-3.0,2.0,84.0,719,75,3.0,44,0,1,0,1,0,0,663,2048.0,20.0,41.0,655.0,0.0,255.0,17.0,1.0,2.0,0.0,0.0,0.0,0.0,0.0,0.0,0.0,0.0,8889.0,8899.0,21.0,73.0,13,2,8,0.050746,benign,,,,,,,,,,,,,,,,,,,,,,,,,,,,,,,,,,,,
28359.678725,70.0,-4.0,0.0,0.0,-2,0,178,70.0,81.0,19339.0,57.0,52.0,-2.0,2.0,82.0,719,75,3.0,44,0,1,0,1,0,0,663,2048.0,20.0,41.0,655.0,0.0,255.0,17.0,1.0,2.0,0.0,0.0,0.0,0.0,0.0,0.0,0.0,0.0,8889.0,8899.0,21.0,73.0,13,2,8,0.050746,benign,,,,,,,,,,,,,,,,,,,,,,,,,,,,,,,,,,,,
28361.640565,70.0,-2.0,0.0,0.0,0,0,178,69.0,81.0,19339.0,58.0,52.0,19.0,0.0,81.0,738,26,0.0,60,1,0,1,0,0,0,0,0.0,0.0,0.0,0.0,0.0,0.0,0.0,0.0,0.0,0.0,0.0,0.0,0.0,0.0,0.0,0.0,0.0,0.0,0.0,0.0,0.0,0,2,12,3.398725,benign,,,,,,,,,,,,,,,,,,,,,,,,,,,,,,,,,,,,
28361.8925,70.0,-2.0,0.0,0.0,0,0,178,69.0,80.0,19334.0,58.0,52.0,33.0,-1.0,78.0,738,26,0.0,60,1,0,1,0,0,0,0,0.0,0.0,0.0,0.0,0.0,0.0,0.0,0.0,0.0,0.0,0.0,0.0,0.0,0.0,0.0,0.0,0.0,0.0,0.0,0.0,0.0,0,2,12,3.398725,benign,,,,,,,,,,,,,,,,,,,,,,,,,,,,,,,,,,,,
28362.15583,70.0,-2.0,0.0,0.0,-1,0,178,69.0,80.0,19337.0,59.0,52.0,46.0,-2.0,79.0,738,26,0.0,60,1,0,1,0,0,0,0,0.0,0.0,0.0,0.0,0.0,0.0,0.0,0.0,0.0,0.0,0.0,0.0,0.0,0.0,0.0,0.0,0.0,0.0,0.0,0.0,0.0,0,2,12,3.398725,benign,,,,,,,,,,,,,,,,,,,,,,,,,,,,,,,,,,,,
28362.499295,70.0,-2.0,0.0,0.0,0,0,178,69.0,80.0,19334.0,59.0,52.0,35.0,-3.0,83.0,750,62,1.0,44,0,1,0,1,0,0,706,2054.0,0.0,0.0,0.0,0.0,0.0,0.0,0.0,0.0,0.0,0.0,0.0,0.0,0.0,0.0,0.0,0.0,0.0,0.0,0.0,0.0,0,2,8,0.00053,benign,,,,,,,,,,,,,,,,,,,,,,,,,,,,,,,,,,,,
28362.75799,70.0,0.0,0.0,0.0,0,0,178,69.0,79.0,19335.0,60.0,52.0,27.0,-9.0,81.0,750,62,1.0,44,0,1,0,1,0,0,706,2054.0,0.0,0.0,0.0,0.0,0.0,0.0,0.0,0.0,0.0,0.0,0.0,0.0,0.0,0.0,0.0,0.0,0.0,0.0,0.0,0.0,0,2,8,0.00053,benign,,,,,,,,,,,,,,,,,,,,,,,,,,,,,,,,,,,,
28363.021285,70.0,0.0,0.0,0.0,-2,0,178,69.0,79.0,19336.0,60.0,52.0,24.0,-8.0,80.0,750,62,1.0,44,0,1,0,1,0,0,706,2054.0,0.0,0.0,0.0,0.0,0.0,0.0,0.0,0.0,0.0,0.0,0.0,0.0,0.0,0.0,0.0,0.0,0.0,0.0,0.0,0.0,0,2,8,0.00053,benign,,,,,,,,,,,,,,,,,,,,,,,,,,,,,,,,,,,,
28364.971535,70.0,-1.0,0.0,0.0,0,0,178,69.0,80.0,19331.0,61.0,52.0,17.0,-7.0,81.0,765,26,0.0,60,1,0,1,0,0,0,0,0.0,0.0,0.0,0.0,0.0,0.0,0.0,0.0,0.0,0.0,0.0,0.0,0.0,0.0,0.0,0.0,0.0,0.0,0.0,0.0,0.0,0,2,12,3.37345,benign,,,,,,,,,,,,,,,,,,,,,,,,,,,,,,,,,,,,
28365.222305000003,70.0,-1.0,0.0,0.0,-1,0,178,69.0,79.0,19336.0,61.0,52.0,7.0,-5.0,81.0,765,26,0.0,60,1,0,1,0,0,0,0,0.0,0.0,0.0,0.0,0.0,0.0,0.0,0.0,0.0,0.0,0.0,0.0,0.0,0.0,0.0,0.0,0.0,0.0,0.0,0.0,0.0,0,2,12,3.37345,benign,,,,,,,,,,,,,,,,,,,,,,,,,,,,,,,,,,,,
28365.490585,70.0,0.0,0.0,0.0,1,0,178,70.0,77.0,19333.0,62.0,51.0,-1.0,-2.0,80.0,765,26,0.0,60,1,0,1,0,0,0,0,0.0,0.0,0.0,0.0,0.0,0.0,0.0,0.0,0.0,0.0,0.0,0.0,0.0,0.0,0.0,0.0,0.0,0.0,0.0,0.0,0.0,0,2,12,3.37345,benign,,,,,,,,,,,,,,,,,,,,,,,,,,,,,,,,,,,,
28365.75264,70.0,0.0,0.0,0.0,0,0,-155,69.0,78.0,19333.0,62.0,51.0,1.0,-3.0,80.0,765,26,0.0,60,1,0,1,0,0,0,0,0.0,0.0,0.0,0.0,0.0,0.0,0.0,0.0,0.0,0.0,0.0,0.0,0.0,0.0,0.0,0.0,0.0,0.0,0.0,0.0,0.0,0,2,12,3.37345,benign,,,,,,,,,,,,,,,,,,,,,,,,,,,,,,,,,,,,
28366.117795,70.0,0.0,0.0,0.0,0,0,-131,69.0,77.0,19326.0,63.0,51.0,2.0,-5.0,79.0,783,26,0.0,60,1,0,1,0,0,0,0,0.0,0.0,0.0,0.0,0.0,0.0,0.0,0.0,0.0,0.0,0.0,0.0,0.0,0.0,0.0,0.0,0.0,0.0,0.0,0.0,0.0,0,2,12,0.025588,benign,,,,,,,,,,,,,,,,,,,,,,,,,,,,,,,,,,,,
28366.375135,70.0,0.0,0.0,0.0,0,0,-95,69.0,78.0,19343.0,63.0,51.0,0.0,0.0,80.0,783,26,0.0,60,1,0,1,0,0,0,0,0.0,0.0,0.0,0.0,0.0,0.0,0.0,0.0,0.0,0.0,0.0,0.0,0.0,0.0,0.0,0.0,0.0,0.0,0.0,0.0,0.0,0,2,12,0.025588,benign,,,,,,,,,,,,,,,,,,,,,,,,,,,,,,,,,,,,
28366.6401,70.0,0.0,0.0,0.0,0,0,-65,69.0,78.0,19341.0,64.0,51.0,2.0,0.0,80.0,783,26,0.0,60,1,0,1,0,0,0,0,0.0,0.0,0.0,0.0,0.0,0.0,0.0,0.0,0.0,0.0,0.0,0.0,0.0,0.0,0.0,0.0,0.0,0.0,0.0,0.0,0.0,0,2,12,0.025588,benign,,,,,,,,,,,,,,,,,,,,,,,,,,,,,,,,,,,,
28368.572665,70.0,0.0,0.0,0.0,0,0,-30,69.0,81.0,19339.0,64.0,51.0,1.0,2.0,82.0,802,26,0.0,60,1,0,1,0,0,0,0,0.0,0.0,0.0,0.0,0.0,0.0,0.0,0.0,0.0,0.0,0.0,0.0,0.0,0.0,0.0,0.0,0.0,0.0,0.0,0.0,0.0,0,2,12,3.331999,benign,,,,,,,,,,,,,,,,,,,,,,,,,,,,,,,,,,,,
